"ST","state_county5","fips","lon","lat","den","r0.est","r0.est.cor","r0.l66.cor","r0.u66.cor","r0.pred","r0.pred.se","R0.pred","R0.pred.l66","R0.pred.u66"
"AL","AL_Autauga Coun",1001,-86.494165,32.500389,35.6848347487011,0.0520531987929581,0.0823339999085427,0.0479505059904991,0.115913727086426,0.100143018770717,0.0285685185769466,2.0073659894771,1.66325060480091,2.40342822784235
"AL","AL_Baldwin Coun",1003,-87.762381,30.548923,42.5198148937258,0.0520531987929581,0.0823339999085427,0.0479505059904991,0.115913727086426,0.116898932611277,0.0269516425448049,2.23307851000428,1.87882555201008,2.63588927774172
"AL","AL_Barbour Coun",1005,-85.310038,31.844036,10.5366087749173,0.0520531987929581,0.0823339999085427,0.0479505059904991,0.115913727086426,0.0924764710881105,0.0278380976969819,1.91010561846497,1.58703816630998,2.2813628924599
"AL","AL_Bibb County,",1007,-87.127659,33.030921,13.8231261870222,0.0520531987929581,0.0823339999085427,0.0479505059904991,0.115913727086426,0.0938956616643406,0.0286886735364368,1.92783171525982,1.59318213661571,2.31388400889886
"AL","AL_Blount Count",1009,-86.591491,33.955243,34.314496473097,0.0520531987929581,0.0823339999085427,0.0479505059904991,0.115913727086426,0.0901277645210267,0.0283241155011386,1.88104448662919,1.55668220186524,2.25493426270498
"AL","AL_Bullock Coun",1011,-85.701192,32.116327,6.22896145720911,0.0520531987929581,0.0823339999085427,0.0479505059904991,0.115913727086426,0.0894947408151548,0.0281576727396906,1.87327029112128,1.55172927330959,2.24366261389943
"AL","AL_Butler Count",1013,-86.65355,31.773539,9.651678428782,0.0520531987929581,0.0823339999085427,0.0479505059904991,0.115913727086426,0.0975408845008633,0.0285596576068673,1.97393937720769,1.63443205704985,2.36495593282524
"AL","AL_Calhoun Coun",1015,-85.819442,33.72546,71.6307727909646,0.0520531987929581,0.0823339999085427,0.0479505059904991,0.115913727086426,0.0933948927084783,0.0276149597230312,1.9215626339339,1.59939153029007,2.29128783627572
"AL","AL_Chambers Cou",1017,-85.266474,32.860439,21.2872947234984,0.0520531987929581,0.0823339999085427,0.0479505059904991,0.115913727086426,0.0887719113141359,0.0272719962642705,1.86442337529876,1.55345656178386,2.22111398703974
"AL","AL_Cherokee Cou",1019,-85.629194,34.179333,16.8572079428878,0.0520531987929581,0.0823339999085427,0.0479505059904991,0.115913727086426,0.0798135290021502,0.0272113394683615,1.75742225825476,1.46124488607575,2.09785511252932
"AL","AL_Chilton Coun",1021,-86.687406,32.877547,24.4773604228052,0.0520531987929581,0.0823339999085427,0.0479505059904991,0.115913727086426,0.0960447149655815,0.0286113735943427,1.95491364293592,1.61741585291378,2.3438734674079
"AL","AL_Choctaw Coun",1023,-88.264164,32.016562,5.27807986399774,0.0520531987929581,0.0823339999085427,0.0479505059904991,0.115913727086426,0.102098170825242,0.0275367897152513,2.03276494100372,1.69692842888289,2.41714720735813
"AL","AL_Clarke Count",1025,-87.815673,31.685685,7.28125381984942,0.0520531987929581,0.0823339999085427,0.0479505059904991,0.115913727086426,0.103065731759532,0.0276866840873341,2.04542474685875,1.70623901195646,2.43382786781553
"AL","AL_Clay County,",1027,-85.820227,33.272412,8.43174381650622,0.0520531987929581,0.0823339999085427,0.0479505059904991,0.115913727086426,0.0830452115638011,0.0278113227468147,1.79546206032563,1.48806237156771,2.14956690354856
"AL","AL_Cleburne Cou",1029,-85.494315,33.62977,10.2605407330814,0.0520531987929581,0.0823339999085427,0.0479505059904991,0.115913727086426,0.079832390911652,0.0271251873634839,1.75764246269779,1.46230773134504,2.0969555239083
"AL","AL_Coffee Count",1031,-85.904715,31.354433,29.696914767565,0.0520531987929581,0.0823339999085427,0.0479505059904991,0.115913727086426,0.102406306359788,0.0285370764714594,2.03679014974823,1.68907776965248,2.43668717571342
"AL","AL_Colbert Coun",1033,-87.685151,34.723385,34.1991690642113,0.0520531987929581,0.0823339999085427,0.0479505059904991,0.115913727086426,0.0903227445309819,0.0286098971533942,1.88344402683006,1.55571734840309,2.26173316139175
"AL","AL_Conecuh Coun",1035,-86.996483,31.418674,5.46469697605274,0.0520531987929581,0.0823339999085427,0.0479505059904991,0.115913727086426,0.0983499159520036,0.0283274589625949,1.98428610654129,1.64595623618024,2.37341503648078
"AL","AL_Coosa County",1037,-86.155035,32.975932,6.17788495484456,0.0520531987929581,0.0823339999085427,0.0479505059904991,0.115913727086426,0.0854080623271129,0.0282840964840135,1.82367366234016,1.50755782993644,2.18845663100031
"AL","AL_Covington Co",1039,-86.410955,31.282449,13.7024650942004,0.0520531987929581,0.0823339999085427,0.0479505059904991,0.115913727086426,0.100210831384068,0.0286149455290049,2.00824284703704,1.66348988202888,2.40512224859223
"AL","AL_Crenshaw Cou",1041,-86.29708,31.743487,8.70405632230169,0.0520531987929581,0.0823339999085427,0.0479505059904991,0.115913727086426,0.0954722796905372,0.0285680675066245,1.94767164167663,1.61163061527206,2.33492981168317
"AL","AL_Cullman Coun",1043,-86.831859,34.162362,42.8463317956119,0.0520531987929581,0.0823339999085427,0.0479505059904991,0.115913727086426,0.0914652480088988,0.0283941578327416,1.89755159717205,1.57019852277828,2.27488326943894
"AL","AL_Dale County,",1045,-85.641269,31.383346,33.738629314822,0.0520531987929581,0.0823339999085427,0.0479505059904991,0.115913727086426,0.102248896178009,0.0283702326700162,2.03473312322228,1.68918458062896,2.43183369179433
"AL","AL_Dallas Count",1047,-87.034955,32.408815,14.4559875696919,0.0520531987929581,0.0823339999085427,0.0479505059904991,0.115913727086426,0.0979470074522153,0.0285946522982745,1.97912812375492,1.63853246292242,2.3714227532465
"AL","AL_DeKalb Count",1049,-85.817208,34.45511,35.4577487364313,0.0520531987929581,0.0823339999085427,0.0479505059904991,0.115913727086426,0.0838288264366054,0.0273883804969213,1.80478065920373,1.50048477109043,2.15448400671293
"AL","AL_Elmore Count",1051,-86.225647,32.559652,47.7055462319309,0.0520531987929581,0.0823339999085427,0.0479505059904991,0.115913727086426,0.10053242427174,0.0284365710795306,2.01240522211212,1.66909144353508,2.40724726191496
"AL","AL_Escambia Cou",1053,-87.282053,31.088737,14.8410035825616,0.0520531987929581,0.0823339999085427,0.0479505059904991,0.115913727086426,0.106097608512222,0.0279161081812726,2.08548464302387,1.7384494207773,2.48300764898065
"AL","AL_Etowah Count",1055,-86.025393,34.013693,71.9481546269168,0.0520531987929581,0.0823339999085427,0.0479505059904991,0.115913727086426,0.0925591003435539,0.0277752367270742,1.91113424256226,1.5886084586399,2.28164462718573
"AL","AL_Fayette Coun",1057,-87.770355,33.726422,10.0006876549392,0.0520531987929581,0.0823339999085427,0.0479505059904991,0.115913727086426,0.0902502869677609,0.0287314784697997,1.8825520467596,1.55365705779078,2.262428740904
"AL","AL_Franklin Cou",1059,-87.793594,34.460481,18.7285237978415,0.0520531987929581,0.0823339999085427,0.0479505059904991,0.115913727086426,0.0885703445322631,0.0287219239569297,1.86196207246037,1.53600850122166,2.23859893663116
"AL","AL_Geneva Count",1061,-85.788849,31.09426,17.5198328148677,0.0520531987929581,0.0823339999085427,0.0479505059904991,0.115913727086426,0.0994632632984276,0.0285881854150541,1.99859250733132,1.6554396542633,2.39365764304405
"AL","AL_Greene Count",1063,-87.924,32.830505,4.74502995963448,0.0520531987929581,0.0823339999085427,0.0479505059904991,0.115913727086426,0.0943944683261102,0.0283607378668095,1.9340918003127,1.6021480941591,2.31634637889862
"AL","AL_Hale County,",1065,-87.626084,32.775804,8.61630810577098,0.0520531987929581,0.0823339999085427,0.0479505059904991,0.115913727086426,0.0959196700268167,0.0285103326561149,1.9533299154411,1.61715305718128,2.34058655805291
"AL","AL_Henry County",1067,-85.268828,31.478593,11.6873971481284,0.0520531987929581,0.0823339999085427,0.0479505059904991,0.115913727086426,0.0946186889179393,0.0279578206460227,1.93691086508837,1.60897540088048,2.3137712835299
"AL","AL_Houston Coun",1069,-85.391221,31.20455,70.2776966593361,0.0520531987929581,0.0823339999085427,0.0479505059904991,0.115913727086426,0.107496672487805,0.0282521884946239,2.10417082709733,1.75078890095621,2.50947679195291
"AL","AL_Jackson Coun",1071,-85.938698,34.731984,17.6895116290135,0.0520531987929581,0.0823339999085427,0.0479505059904991,0.115913727086426,0.0785272008087355,0.0273667963638036,1.74245504851921,1.44671338759648,2.08277575135217
"AL","AL_Jefferson Co",1073,-86.814688,33.518601,226.250608466242,0.0520531987929581,0.0823339999085427,0.0479505059904991,0.115913727086426,0.110714652134508,0.0285889531297031,2.14763494552081,1.78457466558752,2.56436682741242
"AL","AL_Lamar County",1075,-88.109649,33.762769,8.80272234941304,0.0520531987929581,0.0823339999085427,0.0479505059904991,0.115913727086426,0.090811840860354,0.0286666459911845,1.88947347453181,1.5603156109428,2.26947130667988
"AL","AL_Lauderdale C",1077,-87.608759,34.866179,49.8064116320875,0.0520531987929581,0.0823339999085427,0.0479505059904991,0.115913727086426,0.0918884886052743,0.0285103329220856,1.90279827343533,1.5734868117636,2.28256383365531
"AL","AL_Lawrence Cou",1079,-87.272414,34.543683,17.7015556976041,0.0520531987929581,0.0823339999085427,0.0479505059904991,0.115913727086426,0.0854114782534424,0.0284659697928179,1.82371469254013,1.50570865768904,2.19101630706983
"AL","AL_Lee County, ",1081,-85.345833,32.588092,103.198412987457,0.0520531987929581,0.0823339999085427,0.0479505059904991,0.115913727086426,0.10298134924138,0.0275590790261566,2.04431827520376,1.70673227250722,2.43065679103601
"AL","AL_Limestone Co",1083,-86.938972,34.815612,62.9056317494887,0.0520531987929581,0.0823339999085427,0.0479505059904991,0.115913727086426,0.0908387048944463,0.0280345371056562,1.88980507564347,1.56734445109178,2.26089229409344
"AL","AL_Lowndes Coun",1085,-86.618688,32.162415,5.17898033920994,0.0520531987929581,0.0823339999085427,0.0479505059904991,0.115913727086426,0.0923662219502493,0.0285921649275231,1.90873382477175,1.57773430396826,2.29055206281366
"AL","AL_Macon County",1087,-85.715007,32.425739,11.3748613392803,0.0520531987929581,0.0823339999085427,0.0479505059904991,0.115913727086426,0.0903626514247773,0.0280638428198953,1.88393543431033,1.56195191849773,2.25457569033189
"AL","AL_Madison Coun",1089,-86.613232,34.746392,177.122199548504,0.0520531987929581,0.0823339999085427,0.0479505059904991,0.115913727086426,0.0990753375065482,0.0278288588294658,1.99359877636016,1.65958381232663,2.37674757476194
"AL","AL_Marengo Coun",1091,-87.800648,32.340479,7.40959559562935,0.0520531987929581,0.0823339999085427,0.0479505059904991,0.115913727086426,0.0991425868264886,0.0281869339875639,1.9944637859111,1.65633804373555,2.38300612585138
"AL","AL_Marion Count",1093,-87.8743,34.111797,15.4254870216991,0.0520531987929581,0.0823339999085427,0.0479505059904991,0.115913727086426,0.0901629412747686,0.0287613512373677,1.88147721916904,1.55241346764069,2.26161495542661
"AL","AL_Marshall Cou",1095,-86.293279,34.311974,59.955108277198,0.0520531987929581,0.0823339999085427,0.0479505059904991,0.115913727086426,0.0904880758742147,0.0279048939145738,1.88548053268847,1.5649846044244,2.25410222598151
"AL","AL_Mobile Count",1097,-88.170637,30.683993,97.0362356791769,0.0258382431274899,0.138172971914922,0.110551830723838,0.165485061150049,0.121827182586142,0.0262948015624172,2.30299676665445,1.94843102972072,2.70443260273959
"AL","AL_Monroe Count",1099,-87.360894,31.505611,7.73718873842482,0.0520531987929581,0.0823339999085427,0.0479505059904991,0.115913727086426,0.101642863696522,0.0280255288288738,2.02682833865417,1.68622764915593,2.4176450020158
"AL","AL_Montgomery C",1101,-86.243797,32.346175,109.334303995025,0.0520531987929581,0.0823339999085427,0.0479505059904991,0.115913727086426,0.108853949368441,0.028482412504299,2.12242057477993,1.76394574864919,2.53387943541204
"AL","AL_Morgan Count",1103,-86.930781,34.514252,77.1307925661933,0.0520531987929581,0.0823339999085427,0.0479505059904991,0.115913727086426,0.0942377073725778,0.0282599995478927,1.93212275523457,1.60153930052583,2.31263639280755
"AL","AL_Perry County",1105,-87.369219,32.581066,4.75769136350412,0.0520531987929581,0.0823339999085427,0.0479505059904991,0.115913727086426,0.0932594422235132,0.0285486742684814,1.91986962943773,1.58781937843638,2.30272311361731
"AL","AL_Pickens Coun",1107,-88.066472,33.292973,8.64510774682123,0.0520531987929581,0.0823339999085427,0.0479505059904991,0.115913727086426,0.094232603248709,0.0284948495296393,1.93205866911729,1.59893376619434,2.31594629790773
"AL","AL_Pike County,",1109,-85.948647,31.787277,19.0216135531061,0.0520531987929581,0.0823339999085427,0.0479505059904991,0.115913727086426,0.0979766968015933,0.0284350143805322,1.97950785253158,1.64062730735787,2.36951630866305
"AL","AL_Randolph Cou",1111,-85.427266,33.257607,15.0184145263824,0.0520531987929581,0.0823339999085427,0.0479505059904991,0.115913727086426,0.0842550739472114,0.0272306203711844,1.80986511559732,1.50652646783152,2.15814988888934
"AL","AL_Russell Coun",1113,-85.062843,32.421972,34.56513481341,0.0520531987929581,0.0823339999085427,0.0479505059904991,0.115913727086426,0.0948122349205807,0.027273249231663,1.93934679697752,1.6185728398008,2.30670656258794
"AL","AL_St. Clair Co",1115,-86.369107,33.660628,52.872672642982,0.0520531987929581,0.0823339999085427,0.0479505059904991,0.115913727086426,0.0941615555387667,0.0282576161773375,1.93116678075086,1.60073793784471,2.31150577327652
"AL","AL_Shelby Count",1117,-86.737978,33.290719,103.823061749121,0.0520531987929581,0.0823339999085427,0.0479505059904991,0.115913727086426,0.104239195422633,0.0285915672999788,2.06085930754074,1.70930586616263,2.46508309060081
"AL","AL_Sumter Count",1119,-88.232646,32.57442,5.25328518476584,0.0520531987929581,0.0823339999085427,0.0479505059904991,0.115913727086426,0.0982630342377517,0.0279494711099185,1.98317298936076,1.64918937460314,2.36659605819085
"AL","AL_Talladega Co",1121,-86.169238,33.372083,40.6140255497782,0.0520531987929581,0.0823339999085427,0.0479505059904991,0.115913727086426,0.0932705773581029,0.0281702587893679,1.92000876506672,1.59202815256913,2.29745639695279
"AL","AL_Tallapoosa C",1123,-85.864503,32.85306,20.3389983850315,0.0520531987929581,0.0823339999085427,0.0479505059904991,0.115913727086426,0.0911068554675147,0.0280494045173266,1.89311748903136,1.57005258744774,2.26490085026186
"AL","AL_Tuscaloosa C",1125,-87.520229,33.214154,59.7859207459112,0.0520531987929581,0.0823339999085427,0.0479505059904991,0.115913727086426,0.104172330381881,0.0286797855007469,2.05997745128112,1.70753448995735,2.46540577392665
"AL","AL_Walker Count",1127,-87.253922,33.834858,30.4529369708346,0.0520531987929581,0.0823339999085427,0.0479505059904991,0.115913727086426,0.0934341818279335,0.0286912824797322,1.92205392524919,1.58816620489164,2.30728117265764
"AL","AL_Washington C",1129,-88.18612,31.410368,5.79035773852199,0.0520531987929581,0.0823339999085427,0.0479505059904991,0.115913727086426,0.105381413754568,0.0269958028918505,2.07596810568956,1.74081358771032,2.45823674543241
"AL","AL_Wilcox Count",1131,-87.380407,31.999753,4.41306693751681,0.0520531987929581,0.0823339999085427,0.0479505059904991,0.115913727086426,0.0967100936168111,0.0282924266760197,1.96335738118291,1.62822076632782,2.34891678059117
"AL","AL_Winston Coun",1133,-87.415693,34.163824,14.4377294633348,0.0520531987929581,0.0823339999085427,0.0479505059904991,0.115913727086426,0.0874028986659245,0.0286742805771579,1.8477556059203,1.52426466968373,2.22157865117053
"AZ","AZ_Apache Count",4001,-109.41484,35.577687,2.47395356523567,0.0341963664252002,0.0884985017744499,0.0574731698570784,0.11970083192108,0.100157633074736,0.0297828200705116,2.00755493640598,1.64987026488069,2.42169880269863
"AZ","AZ_Cochise Coun",4003,-110.063053,31.607357,7.817369187564,0.0341963664252002,0.0884985017744499,0.0574731698570784,0.11970083192108,0.0838331652101264,0.030360801688321,1.80483235845837,1.47007010065239,2.19539411695248
"AZ","AZ_Coconino Cou",4005,-111.590056,35.514426,2.96831320025438,0.0341963664252002,0.0884985017744499,0.0574731698570784,0.11970083192108,0.080358629767473,0.0305588993815327,1.76379464544335,1.43310298070108,2.15039785453413
"AZ","AZ_Gila County,",4007,-111.007494,33.82356,4.34859098842177,0.0341963664252002,0.0884985017744499,0.0574731698570784,0.11970083192108,0.0760143715866129,0.0288801001177261,1.71350049062377,1.40673088911907,2.06951673732985
"AZ","AZ_Graham Count",4009,-109.812181,32.86733,3.23066584312353,0.0341963664252002,0.0884985017744499,0.0574731698570784,0.11970083192108,0.0826712102540196,0.0298482464491125,1.79102758472874,1.46348003710942,2.17230904251744
"AZ","AZ_Greenlee Cou",4011,-109.248712,32.970402,1.98382279421056,0.0341963664252002,0.0884985017744499,0.0574731698570784,0.11970083192108,0.0849706183226128,0.030415429184372,1.81842519235546,1.48110992460425,2.21194162121397
"AZ","AZ_La Paz Count",4012,-114.172146,33.908361,1.8055942220647,0.0341963664252002,0.0884985017744499,0.0574731698570784,0.11970083192108,0.0619561490872569,0.0296365937667786,1.55830370480707,1.26699120123773,1.89913090990318
"AZ","AZ_Maricopa Cou",4013,-112.04143,33.493403,187.734747606999,0.0432172674393246,0.0735239166927946,0.0428644306166271,0.104009851391163,0.109091419651292,0.0261916419342454,2.12562591925968,1.79373667069357,2.50235036792615
"AZ","AZ_Mohave Count",4015,-114.249634,35.069679,6.0816957299319,0.0341963664252002,0.0884985017744499,0.0574731698570784,0.11970083192108,0.0692048632763939,0.029260383559595,1.63690194851653,1.33748271127164,1.98576444896906
"AZ","AZ_Navajo Count",4017,-110.211155,34.893625,4.29990146670815,0.0341963664252002,0.0884985017744499,0.0574731698570784,0.11970083192108,0.0900617895036568,0.0301778151912179,1.88023309023916,1.53638251607368,2.28029475483556
"AZ","AZ_Pima County,",4019,-110.96001,32.216707,44.0022882217414,0.0228384587655372,0.0937038285767552,0.0588997155652593,0.125679418440299,0.0923802799751325,0.0327813096951869,1.90890870210851,1.53338634657164,2.35123524360503
"AZ","AZ_Pinal County",4021,-111.588364,33.060133,33.2466339097241,0.0341963664252002,0.0884985017744499,0.0574731698570784,0.11970083192108,0.0794416434730258,0.0277318434138757,1.75308500005786,1.45223730147823,2.09984300356271
"AZ","AZ_Santa Cruz C",4023,-110.943195,31.434733,14.4990107326349,0.0341963664252002,0.0884985017744499,0.0574731698570784,0.11970083192108,0.0825309919118244,0.0298050653734141,1.78936721238159,1.46249728971008,2.16979193058846
"AZ","AZ_Yavapai Coun",4025,-112.267767,34.629014,11.1673818783803,0.0341963664252002,0.0884985017744499,0.0574731698570784,0.11970083192108,0.0755648640721185,0.0294203570413631,1.7083603505087,1.39703523148722,2.07071789142084
"AZ","AZ_Yuma County,",4027,-114.598663,32.65004,14.9553861606601,0.0341963664252002,0.0884985017744499,0.0574731698570784,0.11970083192108,0.0705918218349412,0.0302495781441846,1.65228441537173,1.34124258412209,2.01641050049888
"AR","AR_Arkansas Cou",5001,-91.461284,34.405316,6.53032588716509,0.0139146360207101,0.0525185903403099,0.0212846345977196,0.0835441245649118,0.0854557476446288,0.0292783679576702,1.82424649596386,1.49776945495773,2.20288032820551
"AR","AR_Ashley Count",5003,-91.87136,33.179373,8.08126899896495,0.0139146360207101,0.0525185903403099,0.0212846345977196,0.0835441245649118,0.0935520746398469,0.0283507005724976,1.92352869536123,1.59312138582192,2.30408197981116
"AR","AR_Baxter Count",5005,-92.383933,36.332208,27.5913015094348,0.0139146360207101,0.0525185903403099,0.0212846345977196,0.0835441245649118,0.0822598508233022,0.0291368774807609,1.78615990139705,1.46652164640817,2.15693463630411
"AR","AR_Benton Count",5007,-94.230543,36.337348,122.917889650482,0.0139146360207101,0.0525185903403099,0.0212846345977196,0.0835441245649118,0.0900778095907514,0.0289726664585934,1.88043008922177,1.54927186218208,2.26340193745441
"AR","AR_Boone County",5009,-93.099344,36.267871,24.0131682682363,0.0139146360207101,0.0525185903403099,0.0212846345977196,0.0835441245649118,0.079953848759498,0.0291991965183514,1.75906093867486,1.4426442692607,2.12645833657142
"AR","AR_Bradley Coun",5011,-92.103312,33.569321,6.3499755519186,0.0139146360207101,0.0525185903403099,0.0212846345977196,0.0835441245649118,0.0887421599660735,0.0287307171422296,1.86405992880366,1.53772402895557,2.24113722709512
"AR","AR_Calhoun Coun",5013,-92.495555,33.591116,3.16711082838665,0.0139146360207101,0.0525185903403099,0.0212846345977196,0.0835441245649118,0.0838148410896677,0.028679253063475,1.80461402262841,1.48705383006685,2.17196081548294
"AR","AR_Carroll Coun",5015,-93.570816,36.373069,17.0590993177244,0.0139146360207101,0.0525185903403099,0.0212846345977196,0.0835441245649118,0.0766942892031353,0.0291047620422647,1.72129805632544,1.41120814786841,2.08151348687631
"AR","AR_Chicot Count",5017,-91.318378,33.32186,5.65408766427785,0.0139146360207101,0.0525185903403099,0.0212846345977196,0.0835441245649118,0.0927118962927001,0.0283520600560665,1.91303746725349,1.58403524186448,2.29206152206015
"AR","AR_Clark County",5019,-93.124856,34.094705,9.76321417852008,0.0139146360207101,0.0525185903403099,0.0212846345977196,0.0835441245649118,0.0823999968613349,0.0289491952290957,1.78781712699728,1.46985092170209,2.156285517491
"AR","AR_Clay County,",5021,-90.372418,36.370695,8.75827148567609,0.0139146360207101,0.0525185903403099,0.0212846345977196,0.0835441245649118,0.0785738988512955,0.028740054184776,1.74299668339528,1.43344299001016,2.10172317098217
"AR","AR_Cleburne Cou",5023,-92.037481,35.510232,16.2535225424554,0.0139146360207101,0.0525185903403099,0.0212846345977196,0.0835441245649118,0.0829370581850611,0.0295386396580853,1.79417883484941,1.46931854779341,2.17170826127862
"AR","AR_Cleveland Co",5025,-92.139146,33.914989,5.1296281680395,0.0139146360207101,0.0525185903403099,0.0212846345977196,0.0835441245649118,0.0854329301621331,0.0290260295482628,1.82397237711722,1.50013831018322,2.19906437461175
"AR","AR_Columbia Cou",5027,-93.247459,33.258045,11.8089964339643,0.0139146360207101,0.0525185903403099,0.0212846345977196,0.0835441245649118,0.0865689677089304,0.0278959683040438,1.837658730942,1.52368319830869,2.19914720255746
"AR","AR_Conway Count",5029,-92.70416,35.214487,14.2024663842744,0.0139146360207101,0.0525185903403099,0.0212846345977196,0.0835441245649118,0.0814787128401101,0.0295537515694596,1.77694461026193,1.45440512117763,2.1519643164254
"AR","AR_Craighead Co",5031,-90.669325,35.835235,59.7441794533833,0.0139146360207101,0.0525185903403099,0.0212846345977196,0.0835441245649118,0.0920850949396369,0.0291700568456629,1.90523927311728,1.56852944428779,2.29479720245516
"AR","AR_Crawford Cou",5033,-94.28436,35.496882,40.4204395990753,0.0139146360207101,0.0525185903403099,0.0212846345977196,0.0835441245649118,0.081347659819802,0.0291064279508207,1.77540213694853,1.45759622915854,2.14409037795794
"AR","AR_Crittenden C",5035,-90.217261,35.17736,29.0790688422422,0.0139146360207101,0.0525185903403099,0.0212846345977196,0.0835441245649118,0.0894573821739733,0.029095263989483,1.87281225980715,1.54141932673269,2.25635800437255
"AR","AR_Cross County",5037,-90.775307,35.252833,10.1857494068833,0.0139146360207101,0.0525185903403099,0.0212846345977196,0.0835441245649118,0.0834052181269581,0.0293208535873029,1.79973858012755,1.47630178148434,2.17514744256767
"AR","AR_Dallas Count",5039,-92.527123,33.869213,4.0499065485104,0.0139146360207101,0.0525185903403099,0.0212846345977196,0.0835441245649118,0.0829514095009356,0.0289302991465617,1.79434907067265,1.47565674608012,2.16356566358265
"AR","AR_Desha County",5041,-91.417485,33.773838,5.35220106005971,0.0139146360207101,0.0525185903403099,0.0212846345977196,0.0835441245649118,0.0889234025774749,0.0288207403029255,1.8662748571323,1.53868460551247,2.24495372589106
"AR","AR_Drew County,",5043,-91.781779,33.6274,8.41726208154772,0.0139146360207101,0.0525185903403099,0.0212846345977196,0.0835441245649118,0.0909314429446596,0.0287749520078394,1.89095014784729,1.56043589234105,2.27270816979007
"AR","AR_Faulkner Cou",5045,-92.405359,35.104918,73.264873420875,0.0139146360207101,0.0525185903403099,0.0212846345977196,0.0835441245649118,0.0940293270665845,0.0295671698569466,1.92950770746092,1.58513785741785,2.32849892024326
"AR","AR_Franklin Cou",5047,-93.885464,35.446102,11.0369114249052,0.0139146360207101,0.0525185903403099,0.0212846345977196,0.0835441245649118,0.0750489796711859,0.0292892472059176,1.70247586727947,1.39328013499093,2.06216592303621
"AR","AR_Fulton Count",5049,-91.764934,36.376787,7.7654799106131,0.0139146360207101,0.0525185903403099,0.0212846345977196,0.0835441245649118,0.076456261483089,0.0290435537299025,1.71856515096019,1.40946787953597,2.07753909172735
"AR","AR_Garland Coun",5051,-93.081852,34.505811,52.2360451555816,0.0139146360207101,0.0525185903403099,0.0212846345977196,0.0835441245649118,0.0912062042598589,0.0292635693864238,1.89434585608922,1.55815995792627,2.28357555910517
"AR","AR_Grant County",5053,-92.412714,34.309174,11.1397826122405,0.0139146360207101,0.0525185903403099,0.0212846345977196,0.0835441245649118,0.0856016641494084,0.0292787848715975,1.82600021951242,1.49927079904475,2.20491177737959
"AR","AR_Greene Count",5055,-90.523016,36.07312,30.188665610634,0.0139146360207101,0.0525185903403099,0.0212846345977196,0.0835441245649118,0.0863813416815859,0.0290022536448938,1.83539289133411,1.51020446884822,2.21190748504281
"AR","AR_Hempstead Co",5057,-93.623587,33.699647,11.2130042514974,0.0139146360207101,0.0525185903403099,0.0212846345977196,0.0835441245649118,0.0813730988054074,0.0283286485923013,1.77570146909152,1.46572507402364,2.1338809629694
"AR","AR_Hot Spring C",5059,-92.894595,34.353464,20.9563588601815,0.0139146360207101,0.0525185903403099,0.0212846345977196,0.0835441245649118,0.086655026052119,0.0292163514924086,1.8386987214712,1.51082314000952,2.21870565750281
"AR","AR_Howard Count",5061,-93.910184,33.983198,8.56346512004877,0.0139146360207101,0.0525185903403099,0.0212846345977196,0.0835441245649118,0.0768759868868017,0.0285584872229357,1.72338646685755,1.4183905822731,2.07667201429695
"AR","AR_Independence",5063,-91.607539,35.749801,18.9263173131503,0.0139146360207101,0.0525185903403099,0.0212846345977196,0.0835441245649118,0.083699219977827,0.0294194860344522,1.80323684090589,1.47829545022415,2.18054907826252
"AR","AR_Izard County",5065,-91.908429,36.120217,9.00950653084225,0.0139146360207101,0.0525185903403099,0.0212846345977196,0.0835441245649118,0.0777330003500673,0.0292584811985497,1.73326324388173,1.41994352693956,2.09740873295432
"AR","AR_Jackson Coun",5067,-91.246233,35.621102,10.0627237395299,0.0139146360207101,0.0525185903403099,0.0212846345977196,0.0835441245649118,0.0813396536459035,0.0293983011350005,1.77530793898505,1.4545703716381,2.14795215844589
"AR","AR_Jefferson Co",5069,-92.041179,34.233473,28.2362482276749,0.0139146360207101,0.0525185903403099,0.0212846345977196,0.0835441245649118,0.0928607452101438,0.0292533455951339,1.91489292474682,1.57594521004884,2.30711769729886
"AR","AR_Johnson Coun",5071,-93.475517,35.475272,15.0294614410001,0.0139146360207101,0.0525185903403099,0.0212846345977196,0.0835441245649118,0.078156512043438,0.0294187859028444,1.73816015720962,1.42254965756114,2.10522473894744
"AR","AR_Lafayette Co",5073,-93.557538,33.287629,4.69178483644817,0.0139146360207101,0.0525185903403099,0.0212846345977196,0.0835441245649118,0.0796045647060688,0.0277468599983688,1.75498411496119,1.45372721843775,2.10222495347257
"AR","AR_Lawrence Cou",5075,-91.065733,36.070224,10.6929343700216,0.0139146360207101,0.0525185903403099,0.0212846345977196,0.0835441245649118,0.0801120947767274,0.0291497239949195,1.76091037783707,1.44472627464525,2.12792821654627
"AR","AR_Lee County, ",5077,-90.774516,34.785214,5.52010383080341,0.0139146360207101,0.0525185903403099,0.0212846345977196,0.0835441245649118,0.0830972285272094,0.0292288566900444,1.79607948621132,1.47410009792986,2.16965513003021
"AR","AR_Lincoln Coun",5079,-91.746234,33.975379,8.78801636458659,0.0139146360207101,0.0525185903403099,0.0212846345977196,0.0835441245649118,0.0888989488634723,0.0290564252354637,1.86597589549004,1.53594647391162,2.24792899975333
"AR","AR_Little River",5081,-94.195995,33.700518,8.37886866382821,0.0139146360207101,0.0525185903403099,0.0212846345977196,0.0835441245649118,0.0751746464740478,0.028158858133335,1.70390785320993,1.40556747605281,2.04893896480009
"AR","AR_Logan County",5083,-93.768119,35.227532,11.3294551134901,0.0139146360207101,0.0525185903403099,0.0212846345977196,0.0835441245649118,0.0760689638094012,0.0293166781028724,1.71412556738455,1.4029827773906,2.07602419054701
"AR","AR_Lonoke Count",5085,-91.970577,34.905178,35.2715861944886,0.0139146360207101,0.0525185903403099,0.0212846345977196,0.0835441245649118,0.0908023030821001,0.0295338020118629,1.88935575396345,1.55100244178173,2.28166982608192
"AR","AR_Madison Coun",5087,-93.755297,36.061309,7.64519812994412,0.0139146360207101,0.0525185903403099,0.0212846345977196,0.0835441245649118,0.0726491800767362,0.0292230790723219,1.67530782629004,1.37067442890143,2.02981769397985
"AR","AR_Marion Count",5089,-92.663368,36.28457,10.0652499016012,0.0139146360207101,0.0525185903403099,0.0212846345977196,0.0835441245649118,0.0760251359186249,0.0291860807640952,1.71362372747096,1.4038334890032,2.07371146757712
"AR","AR_Miller Count",5091,-93.987504,33.400831,26.1973693575531,0.0139146360207101,0.0525185903403099,0.0212846345977196,0.0835441245649118,0.0842062121123014,0.0277951090524926,1.80928171288304,1.5001817102332,2.16520348033322
"AR","AR_Mississippi ",5093,-89.999037,35.84288,17.0639567248017,0.0139146360207101,0.0525185903403099,0.0212846345977196,0.0835441245649118,0.0831596167593193,0.0289280961170507,1.79682023149828,1.47780325749539,2.16638700150945
"AR","AR_Monroe Count",5095,-91.218021,34.777729,4.16321030591355,0.0139146360207101,0.0525185903403099,0.0212846345977196,0.0835441245649118,0.0816714876342705,0.0293752164525854,1.77921541457249,1.4581521220052,2.15215845057518
"AR","AR_Montgomery C",5097,-93.622663,34.517013,4.33504693667096,0.0139146360207101,0.0525185903403099,0.0212846345977196,0.0835441245649118,0.0741974451300535,0.0291032258817809,1.69279701405309,1.38680387486357,2.04850781296435
"AR","AR_Nevada Count",5099,-93.358085,33.722168,5.1320211453921,0.0139146360207101,0.0525185903403099,0.0212846345977196,0.0835441245649118,0.0796023254660352,0.0284674837278546,1.75495800219317,1.44645676609883,2.11186249426368
"AR","AR_Newton Count",5101,-93.1705,35.98494,3.63617881923862,0.0139146360207101,0.0525185903403099,0.0212846345977196,0.0835441245649118,0.0711538861499865,0.0293498543932413,1.6585498979615,1.35513132767481,2.01203370116935
"AR","AR_Ouachita Cou",5103,-92.838871,33.574461,12.204723650536,0.0139146360207101,0.0525185903403099,0.0212846345977196,0.0835441245649118,0.0879288042919137,0.0285341135824414,1.8541449248231,1.53124160622813,2.22697117637665
"AR","AR_Perry County",5105,-92.779271,34.999054,7.20182534187613,0.0139146360207101,0.0525185903403099,0.0212846345977196,0.0835441245649118,0.0786720409650518,0.0295179088030941,1.74413542385888,1.42668030424057,2.11347752946224
"AR","AR_Phillips Cou",5107,-90.707796,34.529768,9.43941426841729,0.0139146360207101,0.0525185903403099,0.0212846345977196,0.0835441245649118,0.0871544354580045,0.0290817722524158,1.84474287370348,1.51741788988469,2.22380062469371
"AR","AR_Pike County,",5109,-93.624765,34.187298,6.74057289264938,0.0139146360207101,0.0525185903403099,0.0212846345977196,0.0835441245649118,0.0771332632405228,0.0288558356305021,1.72634691273168,1.41799447650251,2.08404067185145
"AR","AR_Poinsett Cou",5111,-90.557998,35.60191,11.8990424372843,0.0139146360207101,0.0525185903403099,0.0212846345977196,0.0835441245649118,0.0825871119639675,0.0292110764611271,1.79003160642609,1.46909111304674,2.16242260628881
"AR","AR_Polk County,",5113,-94.258519,34.52045,8.93728230461139,0.0139146360207101,0.0525185903403099,0.0212846345977196,0.0835441245649118,0.07354265772091,0.0288435131278102,1.68538341298875,1.38297045931765,2.03652693158799
"AR","AR_Pope County,",5115,-93.097238,35.309776,29.7750703540644,0.0139146360207101,0.0525185903403099,0.0212846345977196,0.0835441245649118,0.0841589266553983,0.0295023795837808,1.8087172696398,1.48214660277415,2.18803063937383
"AR","AR_Prairie Coun",5117,-91.536241,34.859177,4.60595926531709,0.0139146360207101,0.0525185903403099,0.0212846345977196,0.0835441245649118,0.0811201765880625,0.0294711252476354,1.77272714424421,1.45162569446459,2.1459564035643
"AR","AR_Pulaski Coun",5119,-92.311659,34.773719,187.295085658948,0.0139146360207101,0.0525185903403099,0.0212846345977196,0.0835441245649118,0.104628255703765,0.0295029604508802,2.06599618410361,1.70334538019237,2.48479339607667
"AR","AR_Randolph Cou",5121,-90.98842,36.304758,10.5682500675446,0.0139146360207101,0.0525185903403099,0.0212846345977196,0.0835441245649118,0.0794004156098428,0.0289601747627611,1.75260467275656,1.43949731190453,2.11577304775762
"AR","AR_St. Francis ",5123,-90.770297,35.015313,15.0212164712184,0.0139146360207101,0.0525185903403099,0.0212846345977196,0.0835441245649118,0.0866937254997954,0.0292928460091971,1.83916654067647,1.5104307009121,2.22031341838995
"AR","AR_Saline Count",5125,-92.546163,34.593233,64.7134229908403,0.0139146360207101,0.0525185903403099,0.0212846345977196,0.0835441245649118,0.0949298649505061,0.0294145153320647,1.94082841151096,1.59652173320795,2.33934266337766
"AR","AR_Scott County",5127,-94.095905,34.907145,4.41965528676125,0.0139146360207101,0.0525185903403099,0.0212846345977196,0.0835441245649118,0.0707782345454366,0.0291002663775884,1.654360375426,1.35392915490125,2.00394841283986
"AR","AR_Searcy Count",5129,-92.659155,35.922829,4.55137742519098,0.0139146360207101,0.0525185903403099,0.0212846345977196,0.0835441245649118,0.0735927027535019,0.0294068964232386,1.68594914336429,1.37800191117685,2.04455754001419
"AR","AR_Sebastian Co",5131,-94.354435,35.318195,90.3808021150824,0.0139146360207101,0.0525185903403099,0.0212846345977196,0.0835441245649118,0.0875186451767484,0.0290556750603724,1.84916037639918,1.52148897991519,2.22853040063962
"AR","AR_Sevier Count",5133,-94.304091,34.014236,11.2945657219696,0.0139146360207101,0.0525185903403099,0.0212846345977196,0.0835441245649118,0.0751450956894808,0.028449672491726,1.7035710354243,1.40242550012284,2.05237219656071
"AR","AR_Sharp County",5135,-91.520168,36.178493,11.1057057930781,0.0139146360207101,0.0525185903403099,0.0212846345977196,0.0835441245649118,0.0793201633280157,0.029165898872639,1.7516699804275,1.43663961397364,2.11746215105332
"AR","AR_Stone County",5137,-92.137,35.856705,7.92260500398106,0.0139146360207101,0.0525185903403099,0.0212846345977196,0.0835441245649118,0.0775814375800113,0.0294274340768992,1.73151336614123,1.41677499175815,2.09764122780688
"AR","AR_Union County",5139,-92.64508,33.20687,14.1517518192581,0.0139146360207101,0.0525185903403099,0.0212846345977196,0.0835441245649118,0.0920852374179,0.0282141262599208,1.90524104295095,1.57877692134086,2.28114620943384
"AR","AR_Van Buren Co",5141,-92.421475,35.567839,8.81889606319791,0.0139146360207101,0.0525185903403099,0.0212846345977196,0.0835441245649118,0.0784923060000046,0.0295358149336507,1.74205040011194,1.42471858711649,2.11130230384914
"AR","AR_Washington C",5143,-94.172222,36.094275,96.5939205455894,0.0139146360207101,0.0525185903403099,0.0212846345977196,0.0835441245649118,0.0881568000612595,0.0290787105515104,1.85692015295404,1.52792220335197,2.23780170698577
"AR","AR_White County",5145,-91.767388,35.243736,29.1690387909758,0.0139146360207101,0.0525185903403099,0.0212846345977196,0.0835441245649118,0.0883282140441067,0.0295468287979059,1.85900875206705,1.52481648891743,2.24679715032246
"AR","AR_Woodruff Cou",5147,-91.252079,35.233191,4.1073976361099,0.0139146360207101,0.0525185903403099,0.0212846345977196,0.0835441245649118,0.0791112050654102,0.0294566383120602,1.74923806196544,1.43165687111828,2.11856364314734
"AR","AR_Yell County,",5149,-93.28946,35.120982,8.68361997035331,0.0139146360207101,0.0525185903403099,0.0212846345977196,0.0835441245649118,0.0770484871529815,0.0294437197896068,1.72537097210242,1.41135822145764,2.0907421183305
"CA","CA_Alameda Coun",6001,-122.100393,37.705201,785.747831039092,0.0872297068363156,0.07034053936404,0.0398212781672919,0.0959377825493094,0.086822335909523,0.0295529773255963,1.84072190790623,1.50906569241179,2.22574561492346
"CA","CA_Alpine Count",6003,-119.847603,38.728298,0.586506221430434,0.0872297068363156,0.07034053936404,0.0398212781672919,0.0959377825493094,0.0474819679709528,0.0319798909160658,1.41014934341434,1.12183722195839,1.75332055783152
"CA","CA_Amador Count",6005,-120.775729,38.394208,25.4001949627516,0.0872297068363156,0.07034053936404,0.0398212781672919,0.0959377825493094,0.058363278308455,0.031243298613128,1.52044833958468,1.22062013816828,1.87464195887025
"CA","CA_Butte County",6007,-121.707635,39.669037,50.4573794596537,0.0872297068363156,0.07034053936404,0.0398212781672919,0.0959377825493094,0.0655755368782591,0.0321695635829761,1.59717420185913,1.27685268811248,1.97654719779143
"CA","CA_Calaveras Co",6009,-120.633718,38.163627,17.0929354785291,0.0872297068363156,0.07034053936404,0.0398212781672919,0.0959377825493094,0.0559602027382887,0.0311180529801189,1.49553068145966,1.20073172445728,1.84381991534076
"CA","CA_Colusa Count",6011,-122.085557,39.156148,7.19466682259049,0.0872297068363156,0.07034053936404,0.0398212781672919,0.0959377825493094,0.0521187144984399,0.0318448977032906,1.45635940615756,1.16161449836927,1.80638724980843
"CA","CA_Contra Costa",6013,-122.030131,37.935588,555.210244066355,0.0872297068363156,0.07034053936404,0.0398212781672919,0.0959377825493094,0.0828829664455629,0.0299902276354319,1.79353730842675,1.46418700323362,2.17717027350399
"CA","CA_Del Norte Co",6015,-124.163088,41.791232,8.73143286826588,0.0872297068363156,0.07034053936404,0.0398212781672919,0.0959377825493094,0.0614587803175961,0.0323908618297255,1.55302011224266,1.23783313900737,1.92725494795263
"CA","CA_El Dorado Co",6017,-120.74433,38.746543,41.56615859838,0.0872297068363156,0.07034053936404,0.0398212781672919,0.0959377825493094,0.0628532542867703,0.0316068510584469,1.56786900688307,1.25730898315001,1.93491671114682
"CA","CA_Fresno Count",6019,-119.767884,36.738918,64.1013330675607,0.0872297068363156,0.07034053936404,0.0398212781672919,0.0959377825493094,0.0685654658654722,0.0307725159053135,1.62984796505557,1.31728822432233,1.9969787259474
"CA","CA_Glenn County",6021,-122.177491,39.663418,8.25962749229825,0.0872297068363156,0.07034053936404,0.0398212781672919,0.0959377825493094,0.0545807261595543,0.0322325845619169,1.48137106132182,1.1792496543657,1.84061272761605
"CA","CA_Humboldt Cou",6023,-124.087189,40.752982,12.9152226814038,0.0872297068363156,0.07034053936404,0.0398212781672919,0.0959377825493094,0.0622415285095705,0.0329620116257211,1.56134161002346,1.23971437354288,1.94427885528837
"CA","CA_Imperial Cou",6025,-115.534487,32.841101,15.6104870086617,0.0872297068363156,0.07034053936404,0.0398212781672919,0.0959377825493094,0.0706395260712867,0.0274449912504822,1.65281547520669,1.36844700681351,1.98088735304024
"CA","CA_Inyo County,",6027,-118.267513,37.160247,0.680979859337472,0.0872297068363156,0.07034053936404,0.0398212781672919,0.0959377825493094,0.0530438184414639,0.0308299339625255,1.46571866642785,1.17810189382582,1.80531603595759
"CA","CA_Kern County,",6029,-118.936004,35.372968,42.5837299956289,0.0872297068363156,0.07034053936404,0.0398212781672919,0.0959377825493094,0.0704641393463981,0.0291181188432539,1.65086365980871,1.35076761497553,2.00012623219308
"CA","CA_Kings County",6031,-119.729084,36.242749,42.4340828727753,0.0872297068363156,0.07034053936404,0.0398212781672919,0.0959377825493094,0.0663232235422111,0.0305280010296227,1.60529685163445,1.29875211849581,1.96515193369438
"CA","CA_Lake County,",6033,-122.734609,38.973362,18.6971588552103,0.0872297068363156,0.07034053936404,0.0398212781672919,0.0959377825493094,0.0572982727085248,0.0320083575070496,1.50936569946639,1.20462099012935,1.87096485620514
"CA","CA_Lassen Count",6035,-120.579176,40.392397,2.50058629725114,0.0872297068363156,0.07034053936404,0.0398212781672919,0.0959377825493094,0.0535694718451499,0.0325106646219558,1.47105753287418,1.16826354280124,1.8317599200806
"CA","CA_Los Angeles ",6037,-118.244222,34.065193,815.626484434942,0.122653328294044,0.125343103252168,0.0957038984681889,0.154865005412274,0.100101346729134,0.0253330106301477,2.00682729030849,1.69928126052527,2.35521490913022
"CA","CA_Madera Count",6039,-120.00675,37.043099,28.2086616812557,0.0872297068363156,0.07034053936404,0.0398212781672919,0.0959377825493094,0.0612788319880923,0.0308540033275071,1.5511119357973,1.24993594042562,1.90583236414175
"CA","CA_Marin County",6041,-122.547075,37.986705,120.660216337817,0.0872297068363156,0.07034053936404,0.0398212781672919,0.0959377825493094,0.067243731716118,0.0307284156718697,1.61534090803598,1.30540983559879,1.97944966160944
"CA","CA_Mariposa Cou",6043,-119.957219,37.542748,4.54040330257201,0.0872297068363156,0.07034053936404,0.0398212781672919,0.0959377825493094,0.05193342499763,0.0311313301207022,1.45449044753521,1.16608583417633,1.79569401734366
"CA","CA_Mendocino Co",6045,-123.397227,39.285329,8.63580036459953,0.0872297068363156,0.07034053936404,0.0398212781672919,0.0959377825493094,0.0557891729937339,0.0326525239819668,1.49376945113828,1.18600840077961,1.86039248078926
"CA","CA_Merced Count",6047,-120.623989,37.281016,54.3669786114091,0.0872297068363156,0.07034053936404,0.0398212781672919,0.0959377825493094,0.0626694530281219,0.0305188511083887,1.56590554098956,1.26546299235945,1.91898092787836
"CA","CA_Modoc County",6049,-120.650911,41.522584,0.812044545689966,0.0872297068363156,0.07034053936404,0.0398212781672919,0.0959377825493094,0.0522586072170998,0.0322724749232378,1.45777170100071,1.15918524235683,1.81316332864009
"CA","CA_Mono County,",6051,-118.970594,37.763322,1.78066774666244,0.0872297068363156,0.07034053936404,0.0398212781672919,0.0959377825493094,0.0531617985650016,0.0315046381628125,1.46691563075123,1.17335187703756,1.81478246300989
"CA","CA_Monterey Cou",6053,-121.646162,36.611722,44.4409647991117,0.0872297068363156,0.07034053936404,0.0398212781672919,0.0959377825493094,0.0585084580018108,0.0299458398118835,1.52196399250954,1.23334980735994,1.8605461750658
"CA","CA_Napa County,",6055,-122.321646,38.329075,67.4622839429909,0.0872297068363156,0.07034053936404,0.0398212781672919,0.0959377825493094,0.0628337292007446,0.0309485975022115,1.56766033854776,1.26306470082327,1.92641151480966
"CA","CA_Nevada Count",6057,-120.916546,39.219524,39.5218182160776,0.0872297068363156,0.07034053936404,0.0398212781672919,0.0959377825493094,0.0635137883246961,0.0319493098970018,1.57494096843443,1.26017264337284,1.94755565260245
"CA","CA_Orange Count",6059,-117.86288,33.733953,1293.52010366982,0.0280763823547867,0.0867638680724359,0.0562287678350895,0.113930490686642,0.117004032804572,0.0257626269728068,2.23455256684673,1.89478124158669,2.61870518788582
"CA","CA_Placer Count",6061,-121.182466,38.844511,102.51398076327,0.0872297068363156,0.07034053936404,0.0398212781672919,0.0959377825493094,0.069160162738513,0.0315276707339283,1.63640803466072,1.31579178245683,2.01441904406893
"CA","CA_Plumas Count",6063,-120.825847,39.983857,2.77816087910201,0.0872297068363156,0.07034053936404,0.0398212781672919,0.0959377825493094,0.0523467973434311,0.0323826423603112,1.45866257782503,1.15899982735597,1.81553649442116
"CA","CA_Riverside Co",6065,-117.066205,33.800439,130.600665600909,0.0585694837130517,0.10582568943383,0.0703991529635196,0.139327690383726,0.0777784871522423,0.0288444376372321,1.73378868072617,1.42449597320078,2.09248597821765
"CA","CA_Sacramento C",6067,-121.380861,38.56895,601.870644068132,0.0872297068363156,0.07034053936404,0.0398212781672919,0.0959377825493094,0.0875802329542962,0.0311304447777348,1.84990817772937,1.50058127012752,2.25859223238427
"CA","CA_San Benito C",6069,-121.403859,36.843404,17.4360888120186,0.0872297068363156,0.07034053936404,0.0398212781672919,0.0959377825493094,0.0520035119939338,0.0297406698470278,1.45519717369639,1.17852032947827,1.7800723011399
"CA","CA_San Bernardi",6071,-117.357474,34.190248,41.8640496963104,0.0290896321452651,0.0759634236866129,0.0449593327520995,0.103000107401057,0.0818695199520743,0.0256434928752728,1.78155047667063,1.49827129500002,2.10438982326901
"CA","CA_San Diego Co",6073,-117.112994,32.88326,284.789717563581,0.0358834797253186,0.0719202252612403,0.0345410994646082,0.107351048271971,0.0964783373020554,0.0316840212971666,1.96041320229944,1.58872131881086,2.39529722107083
"CA","CA_San Francisc",6075,-122.438323,37.759598,1467.79819495236,0.0872297068363156,0.07034053936404,0.0398212781672919,0.0959377825493094,0.0984173699652403,0.0302379645221241,1.98515064806588,1.62560026458871,2.40259514520647
"CA","CA_San Joaquin ",6077,-121.298108,37.931804,206.304656737582,0.0872297068363156,0.07034053936404,0.0398212781672919,0.0959377825493094,0.0722384465552834,0.0302428310732773,1.67069170848514,1.35695991580772,2.03777042780875
"CA","CA_San Luis Obi",6079,-120.667689,35.342391,30.2317065860547,0.0872297068363156,0.07034053936404,0.0398212781672919,0.0959377825493094,0.0635154702372081,0.0308905394421193,1.57495900724591,1.26975704719931,1.93423682983599
"CA","CA_San Mateo Co",6081,-122.340991,37.56395,399.389091497169,0.0872297068363156,0.07034053936404,0.0398212781672919,0.0959377825493094,0.0780445027002944,0.029779253126864,1.73686399694055,1.41787411569194,2.10855776395474
"CA","CA_Santa Barbar",6083,-120.092602,34.639262,45.4918518001376,0.0872297068363156,0.07034053936404,0.0398212781672919,0.0959377825493094,0.069526560763277,0.0303050419077421,1.64045991502297,1.3306700527153,2.00334295086639
"CA","CA_Santa Clara ",6085,-121.910421,37.315105,570.586552606767,0.0226177524190155,0.063710141257293,0.0269215358170541,0.0968457704828822,0.0992203608363401,0.0330390942664674,1.99546452952796,1.60375221579526,2.45646146627336
"CA","CA_Santa Cruz C",6087,-121.936728,36.985171,173.580023822519,0.0872297068363156,0.07034053936404,0.0398212781672919,0.0959377825493094,0.0677826884790947,0.0291835591620683,1.62124424929956,1.32482691187865,1.9666154393937
"CA","CA_Shasta Count",6089,-122.299961,40.580269,18.0707571665443,0.0872297068363156,0.07034053936404,0.0398212781672919,0.0959377825493094,0.0612814467064356,0.0324312506057374,1.55113964929268,1.23589980391671,1.92553938658375
"CA","CA_Sierra Count",6091,-120.414236,39.612588,1.20602906344696,0.0872297068363156,0.07034053936404,0.0398212781672919,0.0959377825493094,0.0496144327920768,0.0323218155819912,1.43125726047623,1.13663487495286,1.78233782406469
"CA","CA_Siskiyou Cou",6093,-122.489833,41.576203,2.64823452746538,0.0872297068363156,0.07034053936404,0.0398212781672919,0.0959377825493094,0.054278923936017,0.0320053431785928,1.47828718008811,1.17861212684741,1.83422142710444
"CA","CA_Solano Count",6095,-122.069324,38.235582,190.589185041446,0.0872297068363156,0.07034053936404,0.0398212781672919,0.0959377825493094,0.0715758689950538,0.0306049316646818,1.66326591907723,1.3472022014349,2.03384374701617
"CA","CA_Sonoma Count",6097,-122.720522,38.41408,107.933416682321,0.0872297068363156,0.07034053936404,0.0398212781672919,0.0959377825493094,0.0682667513836318,0.031466805304147,1.62656055311293,1.30804878944271,2.0020776174486
"CA","CA_Stanislaus C",6099,-120.955577,37.619147,140.35572980023,0.0872297068363156,0.07034053936404,0.0398212781672919,0.0959377825493094,0.0692111029723781,0.0303054668166461,1.63697090255279,1.32770195255505,1.99927946333169
"CA","CA_Sutter Count",6101,-121.644269,39.13549,61.4930938133073,0.0872297068363156,0.07034053936404,0.0398212781672919,0.0959377825493094,0.0652337596170349,0.0317608849716614,1.5934718605846,1.2774619208006,1.96697687870545
"CA","CA_Tehama Count",6103,-122.218704,40.115187,8.4829539723641,0.0872297068363156,0.07034053936404,0.0398212781672919,0.0959377825493094,0.0560799641936952,0.0324012870740016,1.49676492282461,1.1906721254986,1.86087496305141
"CA","CA_Trinity Coun",6105,-123.072357,40.681268,1.47866960025264,0.0872297068363156,0.07034053936404,0.0398212781672919,0.0959377825493094,0.0513214580135778,0.0325922176534563,1.44833100503536,1.14861885540422,1.80579189868943
"CA","CA_Tulare Count",6107,-119.231547,36.251227,37.194361394053,0.0872297068363156,0.07034053936404,0.0398212781672919,0.0959377825493094,0.0672882078724228,0.0303344611621201,1.61582743628721,1.3094764958047,1.97498344254965
"CA","CA_Tuolumne Cou",6109,-120.32853,37.971531,9.247690961854,0.0872297068363156,0.07034053936404,0.0398212781672919,0.0959377825493094,0.053735350796761,0.0311848996700799,1.47274544445097,1.18098085931114,1.81782162349257
"CA","CA_Ventura Coun",6111,-119.025018,34.241989,147.912706451365,0.0872297068363156,0.07034053936404,0.0398212781672919,0.0959377825493094,0.0821779372601702,0.0279237873089363,1.78519182210608,1.47803425630113,2.13930411712333
"CA","CA_Yolo County,",6113,-121.721112,38.598913,83.2319491660619,0.0872297068363156,0.07034053936404,0.0398212781672919,0.0959377825493094,0.0654381624138667,0.0311149683338457,1.59568527663757,1.285225206868,1.96136299141117
"CA","CA_Yuba County,",6115,-121.506626,39.13883,47.1973622054935,0.0872297068363156,0.07034053936404,0.0398212781672919,0.0959377825493094,0.0633755450933208,0.0317683644933248,1.57345883309842,1.26055748495817,1.94352664484262
"CO","CO_Adams County",8001,-104.927473,39.874297,166.782614575576,-0.0110253652852011,0.0848992758348952,0.049011701736364,0.115803963712978,0.119993823435237,0.0254714863563778,2.27679536160749,1.9356990740585,2.66164573743732
"CO","CO_Alamosa Coun",8003,-105.877245,37.483069,8.66179986838345,0.0834007311817038,0.116069415113325,0.0832241765351228,0.146707954197766,0.103269350206194,0.0296764852439445,2.04809659076511,1.68595097727963,2.46682241623063
"CO","CO_Arapahoe Cou",8005,-104.845968,39.647528,314.736279830632,0.0627861199736108,0.14374407608456,0.113508912320692,0.174500669967669,0.116190589858837,0.0250800615427809,2.22316307154012,1.89316288993721,2.59512635685773
"CO","CO_Archuleta Co",8007,-107.085027,37.240087,3.99854075237554,0.0834007311817038,0.116069415113325,0.0832241765351228,0.146707954197766,0.109540879761026,0.029111466436435,2.13170276780545,1.76462343023168,2.55424352232719
"CO","CO_Baca County,",8009,-102.527089,37.368221,0.54067307760258,0.0834007311817038,0.116069415113325,0.0832241765351228,0.146707954197766,0.0847093009137309,0.0316094980247445,1.81529544341375,1.46628656029452,2.22495526945902
"CO","CO_Bent County,",8011,-103.1631,38.072386,1.39710635337778,0.0834007311817038,0.116069415113325,0.0832241765351228,0.146707954197766,0.0870191338865261,0.0308893495640515,1.84310386725799,1.49727859406641,2.24726826844923
"CO","CO_Boulder Coun",8013,-105.183981,40.063299,167.613638299308,0.0834007311817038,0.116069415113325,0.0832241765351228,0.146707954197766,0.108775319824643,0.0252811727792582,2.12136005472092,1.80079617355107,2.48365764166032
"CO","CO_Chaffee Coun",8015,-106.082645,38.676497,7.74280572273828,0.0834007311817038,0.116069415113325,0.0832241765351228,0.146707954197766,0.0975398198707938,0.0288527273209979,1.97392578887362,1.63118796347262,2.36923525643039
"CO","CO_Cheyenne Cou",8017,-102.45777,38.816795,0.396829939094179,0.0834007311817038,0.116069415113325,0.0832241765351228,0.146707954197766,0.0835364203410217,0.0311504509298318,1.80129907937417,1.45905842131192,2.20222477050984
"CO","CO_Clear Creek ",8019,-105.52965,39.712957,9.44633441460859,0.0834007311817038,0.116069415113325,0.0832241765351228,0.146707954197766,0.089341563726499,0.0262078746992371,1.87139282750335,1.57086844536776,2.21421704591541
"CO","CO_Conejos Coun",8021,-105.989049,37.195652,2.45390429010468,0.0834007311817038,0.116069415113325,0.0832241765351228,0.146707954197766,0.0998354875970022,0.0297098834505104,2.00339310040659,1.64710126726235,2.41581362192571
"CO","CO_Costilla Cou",8023,-105.448477,37.281779,1.2195993623029,0.0834007311817038,0.116069415113325,0.0832241765351228,0.146707954197766,0.094152668613594,0.029908324359455,1.93105524207115,1.58279140961976,2.33522927270947
"CO","CO_Crowley Coun",8025,-103.857439,38.188547,2.9238155320406,0.0834007311817038,0.116069415113325,0.0832241765351228,0.146707954197766,0.0894709198010809,0.0300152440231464,1.87297822639007,1.53188164694018,2.26958028188698
"CO","CO_Custer Count",8027,-105.381557,38.134216,2.64445477644614,0.0834007311817038,0.116069415113325,0.0832241765351228,0.146707954197766,0.0925203710058474,0.0290870056787683,1.91065206105982,1.57407860451307,2.29984341791037
"CO","CO_Delta County",8029,-107.910553,38.798565,10.4750147448883,0.0834007311817038,0.116069415113325,0.0832241765351228,0.146707954197766,0.10819294082281,0.0306419498744929,2.11351774985039,1.7311620070298,2.55707799213225
"CO","CO_Denver Count",8031,-104.955068,39.72143,1812.8714615159,0.0525815695588652,0.132723108631258,0.100079953149575,0.163520743277636,0.144631320671689,0.0260543554807537,2.64831938136702,2.25670171412929,3.08889966097725
"CO","CO_Dolores Coun",8033,-108.75741,37.740817,0.742823372318904,0.0834007311817038,0.116069415113325,0.0832241765351228,0.146707954197766,0.106087907172865,0.0296053874455491,2.08535551326969,1.71886646946314,2.50862586066789
"CO","CO_Douglas Coun",8035,-104.879712,39.48527,160.868070455148,0.0834007311817038,0.116069415113325,0.0832241765351228,0.146707954197766,0.108959949327553,0.0249371751766137,2.12385089386091,1.80709278318521,2.48123664733677
"CO","CO_Eagle County",8037,-106.717771,39.599453,12.5803912574849,0.0834007311817038,0.116069415113325,0.0832241765351228,0.146707954197766,0.0996259791476788,0.0297216101668365,2.0006899775131,1.64464610382349,2.41287150777877
"CO","CO_Elbert Count",8039,-104.51913,39.382868,5.57539779152412,0.0834007311817038,0.116069415113325,0.0832241765351228,0.146707954197766,0.0878094459774222,0.0262572146873065,1.85269333327829,1.55401178743451,2.19363253072619
"CO","CO_El Paso Coun",8041,-104.758477,38.873669,130.604143466504,0.0834007311817038,0.116069415113325,0.0832241765351228,0.146707954197766,0.110419427697795,0.027435223164208,2.14361921807868,1.79473813319247,2.54188500563792
"CO","CO_Fremont Coun",8043,-105.206532,38.426058,12.0404206394843,0.0834007311817038,0.116069415113325,0.0832241765351228,0.146707954197766,0.0967933536367788,0.0285288227566244,1.96441592326849,1.62653613527316,2.35357757843927
"CO","CO_Garfield Cou",8045,-107.539356,39.507561,7.84473519828987,0.0834007311817038,0.116069415113325,0.0832241765351228,0.146707954197766,0.101733455412328,0.0309005716344414,2.02800847795401,1.65496935152434,2.46211157198701
"CO","CO_Gilpin Count",8047,-105.48021,39.85702,16.0417544064938,0.0834007311817038,0.116069415113325,0.0832241765351228,0.146707954197766,0.0916728000038068,0.0260391213223697,1.90012311440511,1.59780469270933,2.24450013564397
"CO","CO_Grand County",8049,-105.9754,40.050388,3.24914528010901,0.0834007311817038,0.116069415113325,0.0832241765351228,0.146707954197766,0.0880091161500421,0.0280772610719119,1.85512213944132,1.53688631944907,2.22170712097487
"CO","CO_Gunnison Cou",8051,-106.944723,38.657886,2.06817026491329,0.0834007311817038,0.116069415113325,0.0832241765351228,0.146707954197766,0.0978514422144668,0.0298276137191479,1.97790621632555,1.62389092612308,2.38815877575722
"CO","CO_Hinsdale Cou",8053,-107.29653,37.996875,0.281871351124271,0.0834007311817038,0.116069415113325,0.0832241765351228,0.146707954197766,0.0988410263950861,0.0296410674662784,1.99058713787189,1.63684775281279,2.40002861054266
"CO","CO_Huerfano Cou",8055,-104.884201,37.616312,1.6712761990849,0.0834007311817038,0.116069415113325,0.0832241765351228,0.146707954197766,0.0914279196839227,0.0298967832056419,1.89708939194584,1.55378789232497,2.29579297369346
"CO","CO_Jackson Coun",8057,-106.291292,40.692851,0.331546721299764,0.0834007311817038,0.116069415113325,0.0832241765351228,0.146707954197766,0.0836621619237674,0.0298597842400729,1.8027956076303,1.47342790848706,2.1861072343416
"CO","CO_Jefferson Co",8059,-105.128819,39.720524,289.194870309803,0.018850508789172,0.101055198913983,0.0684154297488907,0.136844364976368,0.124551885059766,0.0257792108289984,2.34235808955275,1.98970925238085,2.74040236183053
"CO","CO_Kiowa County",8061,-102.680579,38.470657,0.303974667158729,0.0834007311817038,0.116069415113325,0.0832241765351228,0.146707954197766,0.0828734484627308,0.0310957820792036,1.7934244437034,1.45292080479508,2.19228507791879
"CO","CO_Kit Carson C",8063,-102.435733,39.309763,1.26759140677619,0.0834007311817038,0.116069415113325,0.0832241765351228,0.146707954197766,0.086721607410688,0.0310496152711724,1.83950364852032,1.49256367817778,2.24533498830414
"CO","CO_Lake County,",8065,-106.308061,39.24587,8.17297411790853,0.0834007311817038,0.116069415113325,0.0832241765351228,0.146707954197766,0.0961995119687346,0.0288443515409443,1.95687554990101,1.61656004972354,2.34951919847294
"CO","CO_La Plata Cou",8067,-107.806184,37.265198,12.7686179760889,0.0834007311817038,0.116069415113325,0.0832241765351228,0.146707954197766,0.120155097824131,0.0284885730897788,2.27909110014076,1.90004532622355,2.71289482692995
"CO","CO_Larimer Coun",8069,-105.099218,40.504546,52.3156316411374,0.0834007311817038,0.116069415113325,0.0832241765351228,0.146707954197766,0.10207218920169,0.026598082718547,2.03242581812602,1.70732397904692,2.40281653819262
"CO","CO_Las Animas C",8071,-104.503149,37.196601,1.17275936827775,0.0834007311817038,0.116069415113325,0.0832241765351228,0.146707954197766,0.0904525459514401,0.0304864698389376,1.88504274242278,1.53724647321892,2.29027517190108
"CO","CO_Lincoln Coun",8073,-103.613697,39.173232,0.851001639193297,0.0834007311817038,0.116069415113325,0.0832241765351228,0.146707954197766,0.0838300963932847,0.0291879161103017,1.80479579142984,1.4819996264312,2.17916282368395
"CO","CO_Logan County",8075,-103.187715,40.639399,4.68961763839594,0.0834007311817038,0.116069415113325,0.0832241765351228,0.146707954197766,0.0915893765296349,0.0303136697947458,1.89908919738819,1.5510788116287,2.30408587261221
"CO","CO_Mesa County,",8077,-108.543768,39.092851,17.8197488470541,0.0834007311817038,0.116069415113325,0.0832241765351228,0.146707954197766,0.110516638077974,0.031332442537055,2.14494086982434,1.75008725085647,2.60422406608347
"CO","CO_Mineral Coun",8079,-106.935586,37.798623,0.338238298615776,0.0834007311817038,0.116069415113325,0.0832241765351228,0.146707954197766,0.0981477686656523,0.0295222015593445,1.98169695920572,1.63051001226572,2.38802473282075
"CO","CO_Moffat Count",8081,-107.625859,40.515239,1.07942844666558,0.0834007311817038,0.116069415113325,0.0832241765351228,0.146707954197766,0.0915473752371175,0.0317995732468224,1.89856881359545,1.53495040671507,2.32488913929618
"CO","CO_Montezuma Co",8083,-108.557116,37.370817,4.95534755565162,0.0834007311817038,0.116069415113325,0.0832241765351228,0.146707954197766,0.115737376322124,0.0287422685646195,2.21683651676105,1.84281293830103,2.64590114111994
"CO","CO_Montrose Cou",8085,-107.934568,38.479142,7.36115862058716,0.0834007311817038,0.116069415113325,0.0832241765351228,0.146707954197766,0.108627071017063,0.0303162969326555,2.11936163926951,1.73994648224194,2.55876349977565
"CO","CO_Morgan Count",8087,-103.781517,40.256023,8.67346952094769,0.0834007311817038,0.116069415113325,0.0832241765351228,0.146707954197766,0.0925351520021434,0.0285877017540272,1.91083607393222,1.57959737995854,2.29290397983781
"CO","CO_Otero County",8089,-103.657432,38.024096,5.55765831494781,0.0834007311817038,0.116069415113325,0.0832241765351228,0.146707954197766,0.09232360316807,0.0304304619015812,1.90820373581514,1.55763359627309,2.3163299279366
"CO","CO_Ouray County",8091,-107.746232,38.139834,3.5259404973956,0.0834007311817038,0.116069415113325,0.0832241765351228,0.146707954197766,0.107292509106798,0.0298465484061108,2.10143605675248,1.7299503628901,2.53083683808919
"CO","CO_Park County,",8093,-105.623144,39.311718,3.29112721482204,0.0834007311817038,0.116069415113325,0.0832241765351228,0.146707954197766,0.0871996369213732,0.0270225231607768,1.84529068144304,1.53946895429434,2.19578438246797
"CO","CO_Phillips Cou",8095,-102.387354,40.599517,2.39426052622614,0.0834007311817038,0.116069415113325,0.0832241765351228,0.146707954197766,0.0903061060886173,0.0313102591235393,1.88323917261514,1.52706084780746,2.29997230366638
"CO","CO_Pitkin Count",8097,-106.907765,39.232543,7.04819994846089,0.0834007311817038,0.116069415113325,0.0832241765351228,0.146707954197766,0.0993808599066304,0.0299284574803933,1.99753093730169,1.63963919524323,2.41230250414422
"CO","CO_Prowers Coun",8099,-102.547035,38.083772,2.85785731784985,0.0834007311817038,0.116069415113325,0.0832241765351228,0.146707954197766,0.0893467285555531,0.0313612502412242,1.87145610832745,1.51650966765077,2.28697467774457
"CO","CO_Pueblo Count",8101,-104.645147,38.263685,27.1195242862829,0.0834007311817038,0.116069415113325,0.0832241765351228,0.146707954197766,0.100939415516807,0.0290607507527311,2.0176823561458,1.66665630716235,2.42258923633571
"CO","CO_Rio Blanco C",8103,-108.280174,40.051033,0.757565160604355,0.0834007311817038,0.116069415113325,0.0832241765351228,0.146707954197766,0.0934066874232571,0.0320211852805991,1.92171011098975,1.5522428488272,2.35512023925817
"CO","CO_Rio Grande C",8105,-106.238805,37.616658,4.76406409423638,0.0834007311817038,0.116069415113325,0.0832241765351228,0.146707954197766,0.102309866834333,0.0295735465198118,2.03552969564305,1.67628843715987,2.45079903777945
"CO","CO_Routt County",8107,-106.899535,40.453133,4.17993485254785,0.0834007311817038,0.116069415113325,0.0832241765351228,0.146707954197766,0.0936935218254188,0.0307249248799732,1.92529926122341,1.56910213577993,2.3404186473094
"CO","CO_Saguache Cou",8109,-106.019489,37.915302,0.831033732507115,0.0834007311817038,0.116069415113325,0.0832241765351228,0.146707954197766,0.0935188442197468,0.0294478267060762,1.92311291449828,1.58092612692476,2.31939648067549
"CO","CO_San Juan Cou",8111,-107.673989,37.804646,0.723860231105072,0.0834007311817038,0.116069415113325,0.0832241765351228,0.146707954197766,0.104443367522342,0.0294082632594137,2.06355383461935,1.70231781258557,2.4805458692861
"CO","CO_San Miguel C",8113,-107.960034,37.974202,2.45077937098139,0.0834007311817038,0.116069415113325,0.0832241765351228,0.146707954197766,0.107942466500085,0.0296595648915789,2.110151668642,1.73962361953817,2.53798063138994
"CO","CO_Sedgwick Cou",8115,-102.32767,40.960246,1.5791372882961,0.0834007311817038,0.116069415113325,0.0832241765351228,0.146707954197766,0.0896272004993236,0.0315509429085293,1.87489499084279,1.51745534238083,2.2936950465025
"CO","CO_Summit Count",8117,-106.054579,39.573131,19.3340846820119,0.0834007311817038,0.116069415113325,0.0832241765351228,0.146707954197766,0.0976923215173199,0.0281066592279722,1.97587296267019,1.64111422678737,2.36054270233918
"CO","CO_Teller Count",8119,-105.140532,38.94355,17.5358314983184,0.0834007311817038,0.116069415113325,0.0832241765351228,0.146707954197766,0.0954088521785913,0.0271328290426169,1.9468704727834,1.62666251331056,2.31326964474825
"CO","CO_Washington C",8121,-103.156814,40.092526,0.750701389910321,0.0834007311817038,0.116069415113325,0.0832241765351228,0.146707954197766,0.0847014387492344,0.0300005454483095,1.81520134401087,1.48260034892678,2.20243445986452
"CO","CO_Weld County,",8123,-104.788507,40.328082,31.1522741834327,0.0225147598853991,0.121397653480931,0.0857147198150734,0.151703008344177,0.0986756143385438,0.0283894716753896,1.98846316611934,1.6488846227686,2.3791135656164
"CO","CO_Yuma County,",8125,-102.486935,40.069473,1.63275453696669,0.0834007311817038,0.116069415113325,0.0832241765351228,0.146707954197766,0.0881029515959244,0.0310165344632702,1.85626440679897,1.50716860419891,2.26437969421351
"CT","CT_Fairfield Co",9001,-73.364521,41.207889,435.146838967736,0.128026645344316,0.190860304673851,0.157845197844637,0.225524993511179,0.176071384394551,0.0251851579777603,3.18638581048523,2.74949734126428,3.67278484800851
"CT","CT_Hartford Cou",9003,-72.717282,41.761943,458.686622369614,0.15161769508526,0.228354312239385,0.195459822756379,0.261798456534743,0.182482254291072,0.0267811613109586,3.30538246747469,2.82933300796992,3.83827520950797
"CT","CT_Litchfield C",9005,-73.187494,41.727851,73.7081288508816,0.00372037379201416,0.131797519253509,0.100818897231309,0.159074356226924,0.159698654424998,0.0231471099020093,2.89692343238564,2.52179319483346,3.31222695991734
"CT","CT_Middlesex Co",9007,-72.571408,41.478564,142.840195109165,0.0366901526199534,0.170988967578865,0.138872464577231,0.201326193218566,0.170075235238946,0.0232269623861791,3.07799169539003,2.6838550490702,3.51363300197302
"CT","CT_New Haven Co",9009,-72.941497,41.396052,382.830988496362,0.152525695411904,0.230339004924951,0.196767193579483,0.261403178735355,0.178417786124109,0.0267799861717824,3.22956418462473,2.76184675212178,3.75357549430381
"CT","CT_New London C",9011,-72.097683,41.443373,132.68784174049,0.0402095297214535,0.135393610032188,0.108251829880632,0.167638955602542,0.171660781779795,0.0250654908645187,3.10638339992651,2.67978200056609,3.5815066611583
"CT","CT_Tolland Coun",9013,-72.37209,41.842762,139.543104763173,0.0402095297214535,0.135393610032188,0.108251829880632,0.167638955602542,0.173834240149065,0.024483594478916,3.14561824570899,2.72439425089975,3.6133818361306
"CT","CT_Windham Coun",9015,-71.995072,41.804225,86.4599899930428,0.0402095297214535,0.135393610032188,0.108251829880632,0.167638955602542,0.167976977530593,0.0247503257080233,3.04071631173866,2.62598745843672,3.50233079442183
"DE","DE_Kent County,",10001,-75.558604,39.12322,87.2370009081128,NA,NA,NA,NA,0.139056766645725,0.0250302321750778,2.56052637011135,2.19307751162263,2.97250133294599
"DE","DE_New Castle C",10003,-75.634376,39.68502,437.127595061423,0.0461893379819834,0.141941167917853,0.111698923219161,0.171321061584823,0.147853163314012,0.0233033100590991,2.70007982545933,2.34232854943387,3.09733194322752
"DE","DE_Sussex Count",10005,-75.346649,38.662387,75.6332793369035,0.0250610945695321,0.155396715230046,0.124697635576855,0.184584125919014,0.131151213001683,0.0244310294648389,2.43980185387583,2.09378419159152,2.82734171111863
"DC","DC_Washington, ",11001,-77.014468,38.91027,3986.117809813,0.0846402649156995,0.169107108645504,0.140694031598361,0.196199590893908,0.182188820915286,0.0203828147564599,3.29986508099571,2.93303592599238,3.69959929496873
"FL","FL_Alachua Coun",12001,-82.386845,29.665903,107.181336027356,0.094253170678548,0.0826443965563372,0.0545109332908698,0.108109398723798,0.103816277661814,0.0306898876783457,2.05528646312023,1.68068342741376,2.49049831933757
"FL","FL_Baker County",12003,-82.185477,30.288432,19.1503698677785,0.094253170678548,0.0826443965563372,0.0545109332908698,0.108109398723798,0.0902735695866105,0.0303742697493337,1.88283862926652,1.53654375790816,2.28611614329325
"FL","FL_Bay County, ",12005,-85.660217,30.206925,65.2769423656515,0.094253170678548,0.0826443965563372,0.0545109332908698,0.108109398723798,0.108355010462461,0.0291851981908857,2.11569795478691,1.74991988727617,2.53702581486908
"FL","FL_Bradford Cou",12007,-82.128192,29.953429,36.2876059081495,0.094253170678548,0.0826443965563372,0.0545109332908698,0.108109398723798,0.0944149435933174,0.0306203371080831,1.93434909980048,1.57795501480431,2.34939412753876
"FL","FL_Brevard Coun",12009,-80.690979,28.232195,149.244460394644,0.094253170678548,0.0826443965563372,0.0545109332908698,0.108109398723798,0.102315865055706,0.0301702560257701,2.03560807436572,1.66964969757225,2.45987936340057
"FL","FL_Broward Coun",12011,-80.227135,26.134058,571.302870909611,0.0574183817112757,0.108874298766486,0.0771758496695437,0.14450868645184,0.117253849434555,0.027945789853592,2.23805927325319,1.87098236592103,2.65739512237027
"FL","FL_Calhoun Coun",12013,-85.122189,30.463143,9.48147040782314,0.094253170678548,0.0826443965563372,0.0545109332908698,0.108109398723798,0.0947053582377641,0.0288961552590519,1.93800137811215,1.59970925203492,2.32857152972883
"FL","FL_Charlotte Co",12015,-82.119946,26.954793,84.8832808328781,0.094253170678548,0.0826443965563372,0.0545109332908698,0.108109398723798,0.099293596383359,0.0304149987700594,1.99640722623044,1.63329956194619,2.41824371256475
"FL","FL_Citrus Count",12017,-82.453512,28.863598,74.7282196762027,0.094253170678548,0.0826443965563372,0.0545109332908698,0.108109398723798,0.10063681161076,0.0309793434841761,2.01375772335215,1.64190945945947,2.44678066162031
"FL","FL_Clay County,",12019,-81.79941,30.084386,131.50483696766,0.094253170678548,0.0826443965563372,0.0545109332908698,0.108109398723798,0.103974929047632,0.0306895374129744,2.05737568410081,1.68247748230401,2.49290986368071
"FL","FL_Collier Coun",12021,-81.699625,26.199831,64.4709684220315,0.094253170678548,0.0826443965563372,0.0545109332908698,0.108109398723798,0.0956767336865031,0.0295575973639263,1.95025587041382,1.60307653818097,2.35229603835719
"FL","FL_Columbia Cou",12023,-82.660566,30.126051,34.549254972089,0.094253170678548,0.0826443965563372,0.0545109332908698,0.108109398723798,0.0956068470514772,0.0302389833785114,1.94937223200695,1.59492376410317,2.36122791969451
"FL","FL_DeSoto Count",12027,-81.864094,27.189369,22.9415329870117,0.094253170678548,0.0826443965563372,0.0545109332908698,0.108109398723798,0.0892678597274222,0.0301417308847985,1.87048996598397,1.52842551112432,2.26849349698398
"FL","FL_Dixie County",12029,-83.056329,29.634179,7.52167993855626,0.094253170678548,0.0826443965563372,0.0545109332908698,0.108109398723798,0.0883089615497461,0.0305143476917922,1.8587740795355,1.51452287049416,2.26018562495611
"FL","FL_Duval County",12031,-81.622853,30.300302,402.699615644537,0.094253170678548,0.0826443965563372,0.0545109332908698,0.108109398723798,0.11570950015455,0.0306630695447396,2.21644783124554,1.81933395789097,2.67619999535633
"FL","FL_Escambia Cou",12033,-87.274788,30.485314,137.48395309371,0.094253170678548,0.0826443965563372,0.0545109332908698,0.108109398723798,0.120202775165689,0.0272106383186451,2.27977012243689,1.91653191685174,2.69297067799695
"FL","FL_Flagler Coun",12035,-81.224735,29.523494,77.8447241345588,0.094253170678548,0.0826443965563372,0.0545109332908698,0.108109398723798,0.0981777393093924,0.0309834627553045,1.98208066659375,1.61480004729811,2.41010137136373
"FL","FL_Franklin Cou",12037,-84.822838,29.786787,4.56085075424992,0.094253170678548,0.0826443965563372,0.0545109332908698,0.108109398723798,0.0912278906891122,0.0299170154694233,1.89461407244234,1.55145158969905,2.29321947376615
"FL","FL_Gadsden Coun",12039,-84.581397,30.59828,33.3568176506977,0.094253170678548,0.0826443965563372,0.0545109332908698,0.108109398723798,0.10114019537035,0.0285932659681949,2.02028960181475,1.67415773936137,2.41861408390004
"FL","FL_Gilchrist Co",12041,-82.808262,29.704639,20.1821291047951,0.094253170678548,0.0826443965563372,0.0545109332908698,0.108109398723798,0.0927460090760249,0.0305337167385802,1.91346257407034,1.5610301755539,2.32391747145635
"FL","FL_Glades Count",12043,-81.185404,26.896029,5.40712542314781,0.094253170678548,0.0826443965563372,0.0545109332908698,0.108109398723798,0.0798215933294216,0.0287479757723011,1.75751640310336,1.44584228687921,2.11858689123707
"FL","FL_Gulf County,",12045,-85.259478,29.988579,6.96769363867454,0.094253170678548,0.0826443965563372,0.0545109332908698,0.108109398723798,0.0939923357962292,0.0295710103450815,1.92904377281863,1.58469778114552,2.32801914153847
"FL","FL_Hamilton Cou",12047,-82.997218,30.501534,10.7262498874847,0.094253170678548,0.0826443965563372,0.0545109332908698,0.108109398723798,0.0895827576854131,0.0295971191786259,1.87434975178617,1.53745238394439,2.26523559406683
"FL","FL_Hardee Count",12049,-81.815432,27.548312,16.2919049100411,0.094253170678548,0.0826443965563372,0.0545109332908698,0.108109398723798,0.0874132120933198,0.0302917859601946,1.84788074270039,1.50753150112146,2.24440268421832
"FL","FL_Hendry Count",12051,-81.202571,26.705392,13.6355235094184,0.094253170678548,0.0826443965563372,0.0545109332908698,0.108109398723798,0.08424888248021,0.028593946939614,1.80979118243743,1.49238823157524,2.17675266326575
"FL","FL_Hernando Cou",12053,-82.496961,28.50485,127.092741643553,0.094253170678548,0.0826443965563372,0.0545109332908698,0.108109398723798,0.105210680784867,0.0310356405256422,2.07370436507933,1.69254292724688,2.5171044855309
"FL","FL_Highlands Co",12055,-81.442555,27.460415,37.0694235691381,0.094253170678548,0.0826443965563372,0.0545109332908698,0.108109398723798,0.0915411853037023,0.0297778372274395,1.89849213136999,1.55625390884043,2.29571163506295
"FL","FL_Hillsborough",12057,-82.401275,27.976529,448.789923442166,0.094253170678548,0.0826443965563372,0.0545109332908698,0.108109398723798,0.118525297901704,0.030966347793067,2.25597152878648,1.84964973427446,2.72669207548949
"FL","FL_Holmes Count",12059,-85.758558,30.847684,15.4970036173796,0.094253170678548,0.0826443965563372,0.0545109332908698,0.108109398723798,0.0972367047030956,0.0283566751649535,1.97005990925563,1.6333153587918,2.35753738952028
"FL","FL_Indian River",12061,-80.440581,27.671827,100.080344992591,0.094253170678548,0.0826443965563372,0.0545109332908698,0.108109398723798,0.0974657400890575,0.0292032187180749,1.97298045233191,1.62651403788389,2.37329145217194
"FL","FL_Jackson Coun",12063,-85.216119,30.80024,18.7714419765034,0.094253170678548,0.0826443965563372,0.0545109332908698,0.108109398723798,0.0977854585861014,0.0283942885565869,1.97706287944577,1.6389617680549,2.36611610128971
"FL","FL_Jefferson Co",12065,-83.886291,30.504031,8.63920232688331,0.094253170678548,0.0826443965563372,0.0545109332908698,0.108109398723798,0.0917967263285691,0.0289258399462453,1.90165980446157,1.56805746298734,2.28718296141113
"FL","FL_Lafayette Co",12067,-83.179508,30.065418,5.93428353667564,0.094253170678548,0.0826443965563372,0.0545109332908698,0.108109398723798,0.0876686432075746,0.0300166288057098,1.85098206478703,1.51303980776964,2.24412503968371
"FL","FL_Lake County,",12069,-81.752026,28.735689,122.562665971065,0.094253170678548,0.0826443965563372,0.0545109332908698,0.108109398723798,0.103066780491892,0.0308429955443295,2.04543850131098,1.6705271127807,2.48142877436001
"FL","FL_Lee County, ",12071,-81.858144,26.574992,245.479559365247,0.094253170678548,0.0826443965563372,0.0545109332908698,0.108109398723798,0.108808671652269,0.0298921718795724,2.12180983992158,1.74697436722299,2.55499633654907
"FL","FL_Leon County,",12073,-84.270371,30.466103,161.509997017511,0.094253170678548,0.0826443965563372,0.0545109332908698,0.108109398723798,0.113680074967239,0.0288647641761084,2.18828977787536,1.81656460369479,2.61519890857116
"FL","FL_Levy County,",12075,-82.666319,29.379995,11.3454210849125,0.094253170678548,0.0826443965563372,0.0545109332908698,0.108109398723798,0.089051376246474,0.0307855167075373,1.86784001360802,1.51943196119818,2.27456314239341
"FL","FL_Liberty Coun",12077,-84.905169,30.399795,3.82521178237184,0.094253170678548,0.0826443965563372,0.0545109332908698,0.108109398723798,0.0904531679132321,0.0289825046437685,1.88505040539982,1.55314618347901,2.26886362732117
"FL","FL_Madison Coun",12079,-83.430563,30.47263,9.9738535367511,0.094253170678548,0.0826443965563372,0.0545109332908698,0.108109398723798,0.0908861126958235,0.0292885196794156,1.89039037142486,1.55449333041585,2.27936929332472
"FL","FL_Manatee Coun",12081,-82.532775,27.477054,174.383697125861,0.094253170678548,0.0826443965563372,0.0545109332908698,0.108109398723798,0.107527402449207,0.0310019444993019,2.10458268995486,1.71935928183438,2.55233497883377
"FL","FL_Marion Count",12083,-82.123367,29.140116,84.8720690480053,0.094253170678548,0.0826443965563372,0.0545109332908698,0.108109398723798,0.100934255824997,0.0309101054937303,2.01761538838554,1.64597502890367,2.45021155823967
"FL","FL_Martin Count",12085,-80.244395,27.1443,82.5683422833421,0.094253170678548,0.0826443965563372,0.0545109332908698,0.108109398723798,0.0946764236387538,0.02788805264349,1.93763725746452,1.610366206659,2.31359795672807
"FL","FL_MiamiDade Co",12086,-80.298888,25.774565,431.76652573685,0.0744934661377397,0.121113568227192,0.0897705630178679,0.153395235501719,0.108100494131419,0.0301281268309965,2.11227489871805,1.73602964844339,2.54767322247895
"FL","FL_Monroe Count",12087,-81.263945,24.739678,7.66827654215216,0.094253170678548,0.0826443965563372,0.0545109332908698,0.108109398723798,0.0818973047065206,0.0302979137383657,1.781878284243,1.45112587208654,2.16786045863575
"FL","FL_Nassau Count",12089,-81.647153,30.607962,47.139108465427,0.094253170678548,0.0826443965563372,0.0545109332908698,0.108109398723798,0.0944984670845648,0.0304663142585878,1.93539895738379,1.58050811265689,2.34836698306159
"FL","FL_Okaloosa Cou",12091,-86.567105,30.542829,75.1936875137611,0.094253170678548,0.0826443965563372,0.0545109332908698,0.108109398723798,0.111431177851914,0.0282027005284075,2.15740514636138,1.79763809676294,2.56951218500554
"FL","FL_Okeechobee C",12093,-80.822153,27.272057,18.2528127790317,0.094253170678548,0.0826443965563372,0.0545109332908698,0.108109398723798,0.0853266394595171,0.0286988462879868,1.82269586640614,1.50242086495162,2.19306300728324
"FL","FL_Orange Count",12095,-81.384377,28.532855,535.705541603844,0.094253170678548,0.0826443965563372,0.0545109332908698,0.108109398723798,0.118766318101277,0.0306527931419884,2.25937926746828,1.85639315116539,2.72550982733948
"FL","FL_Osceola Coun",12097,-81.383484,28.266765,96.3021104188986,0.094253170678548,0.0826443965563372,0.0545109332908698,0.108109398723798,0.0996504330252709,0.0304686481093082,2.0010053428579,1.63664693221242,2.42436321450832
"FL","FL_Palm Beach C",12099,-80.146119,26.617075,242.153128684591,0.0455675086409166,0.0984419617414033,0.0690315729539436,0.127023241349264,0.108171412627338,0.027988497801145,2.11322827554388,1.7617385449795,2.51577827206746
"FL","FL_Pasco County",12101,-82.51608,28.261606,246.399825315736,0.094253170678548,0.0826443965563372,0.0545109332908698,0.108109398723798,0.111870552885869,0.0310511594164952,2.16341295929795,1.76919498015776,2.62115817261491
"FL","FL_Pinellas Cou",12103,-82.727651,27.899794,619.412234492284,0.094253170678548,0.0826443965563372,0.0545109332908698,0.108109398723798,0.123686982735274,0.0311693405574274,2.3298088682023,1.91061809058131,2.81520194212584
"FL","FL_Polk County,",12105,-81.799975,28.03114,139.209607047767,0.094253170678548,0.0826443965563372,0.0545109332908698,0.108109398723798,0.10384990301757,0.0305673791686683,2.05572912761003,1.68244511126978,2.48914505304135
"FL","FL_Putnam Count",12107,-81.720431,29.609299,34.78240125249,0.094253170678548,0.0826443965563372,0.0545109332908698,0.108109398723798,0.0931542602563847,0.0308766605054445,1.91855574197461,1.56172592062545,2.33479309362499
"FL","FL_St. Johns Co",12109,-81.421504,29.977088,124.399376662958,0.094253170678548,0.0826443965563372,0.0545109332908698,0.108109398723798,0.102655287250846,0.0308777375821607,2.04004705886825,1.66552353310794,2.47571221089241
"FL","FL_St. Lucie Co",12111,-80.353183,27.338067,184.203693867936,0.094253170678548,0.0826443965563372,0.0545109332908698,0.108109398723798,0.102692921760983,0.028431815318906,2.04053970018494,1.69351913837992,2.43940490150413
"FL","FL_Santa Rosa C",12113,-87.036954,30.549593,61.5969698403341,0.094253170678548,0.0826443965563372,0.0545109332908698,0.108109398723798,0.111830804716204,0.0275695619451453,2.16286893797318,1.80993878068299,2.56587347902794
"FL","FL_Sarasota Cou",12115,-82.423893,27.208205,230.905180505006,0.094253170678548,0.0826443965563372,0.0545109332908698,0.108109398723798,0.109983333256823,0.0308553303556544,2.13769779757308,1.74943346391367,2.58834752755657
"FL","FL_Seminole Cou",12117,-81.310445,28.697834,528.190502007791,0.094253170678548,0.0826443965563372,0.0545109332908698,0.108109398723798,0.118536446884592,0.0307299985850271,2.25612907605105,1.85265688787383,2.72302276416286
"FL","FL_Sumter Count",12119,-82.035469,28.825768,88.0978901202977,0.094253170678548,0.0826443965563372,0.0545109332908698,0.108109398723798,0.100870954155052,0.0309160669404653,2.01679393277096,1.64520648168174,2.44934915285061
"FL","FL_Suwannee Cou",12121,-82.987546,30.214688,24.7846447143634,0.094253170678548,0.0826443965563372,0.0545109332908698,0.108109398723798,0.0944997579318058,0.0299533995761771,1.93541518625301,1.58604565924307,2.34092302989162
"FL","FL_Taylor Count",12123,-83.597967,30.064881,6.75932907072631,0.094253170678548,0.0826443965563372,0.0545109332908698,0.108109398723798,0.0896723734925668,0.0298069969483525,1.87544931274211,1.53618686419947,2.26948384909575
"FL","FL_Union County",12125,-82.356919,30.010768,23.5585227351823,0.094253170678548,0.0826443965563372,0.0545109332908698,0.108109398723798,0.0922214586699668,0.0304856181546882,1.90693373032643,1.55596162835905,2.31565260046571
"FL","FL_Volusia Coun",12127,-81.123944,29.073725,149.125654149862,0.094253170678548,0.0826443965563372,0.0545109332908698,0.108109398723798,0.103754730729517,0.030894031392195,2.05447641059555,1.67768887384607,2.492670546631
"FL","FL_Wakulla Coun",12129,-84.331546,30.185525,17.7046008626845,0.094253170678548,0.0826443965563372,0.0545109332908698,0.108109398723798,0.0967702805390661,0.0293699759836839,1.96412253531176,1.61705417450898,2.36553760229015
"FL","FL_Walton Count",12131,-86.190665,30.583729,23.0985051000349,0.094253170678548,0.0826443965563372,0.0545109332908698,0.108109398723798,0.101548750642906,0.0284815423062169,2.02560288253359,1.68001604395331,2.42303857495352
"FL","FL_Washington C",12133,-85.625419,30.650718,15.9703382514557,0.094253170678548,0.0826443965563372,0.0545109332908698,0.108109398723798,0.0978210230228312,0.0286235247295187,1.97751739439128,1.63682056197775,2.36999793668955
"GA","GA_Appling Coun",13001,-82.338473,31.77388,13.8609179099926,0.0703443285550276,0.0786054252846498,0.0446134101802126,0.1160061575979,0.0864380774697533,0.0290765815715213,1.83607782656,1.51002185199169,2.21373255019901
"GA","GA_Atkinson Cou",13003,-82.886363,31.317301,9.16111189238809,0.0703443285550276,0.0786054252846498,0.0446134101802126,0.1160061575979,0.0868446310217951,0.0287096534132261,1.84099163961225,1.51806729045686,2.21428455985037
"GA","GA_Bacon County",13005,-82.466071,31.547221,15.074635773433,0.0703443285550276,0.0786054252846498,0.0446134101802126,0.1160061575979,0.0875059798059731,0.0290334872437932,1.84900662174165,1.5215884096359,2.22804249483679
"GA","GA_Baker County",13007,-84.437989,31.307754,3.35913829675431,0.0703443285550276,0.0786054252846498,0.0446134101802126,0.1160061575979,0.0901183832249683,0.0273417644098892,1.88092909399771,1.56705011262633,2.24095825434902
"GA","GA_Baldwin Coun",13009,-83.245659,33.084849,64.7881027639149,0.0703443285550276,0.0786054252846498,0.0446134101802126,0.1160061575979,0.0946946449048259,0.0275116489463108,1.93786655258594,1.61467669800297,2.30844321701668
"GA","GA_Banks County",13011,-83.506647,34.351255,31.752537622559,0.0703443285550276,0.0786054252846498,0.0446134101802126,0.1160061575979,0.0839964376657489,0.026852901814391,1.80677868234254,1.507760721448,2.14946890233037
"GA","GA_Barrow Count",13013,-83.7275,33.993054,197.354130968765,0.0703443285550276,0.0786054252846498,0.0446134101802126,0.1160061575979,0.10019073001901,0.0259101433549307,2.00798289386623,1.69374015438111,2.3649607842039
"GA","GA_Bartow Count",13015,-84.829122,34.208435,88.4007225584829,0.0703443285550276,0.0786054252846498,0.0446134101802126,0.1160061575979,0.0891664469843741,0.0257960792038649,1.86924822373265,1.57340334704806,2.2060518228762
"GA","GA_Ben Hill Cou",13017,-83.248636,31.727638,25.3814412818786,0.0703443285550276,0.0786054252846498,0.0446134101802126,0.1160061575979,0.0940760852243335,0.0281436785029746,1.9300942581333,1.60104714806411,2.30863690952623
"GA","GA_Berrien Coun",13019,-83.252459,31.238588,16.3587909942754,0.0703443285550276,0.0786054252846498,0.0446134101802126,0.1160061575979,0.0918939933226961,0.0283464319847548,1.90286658554463,1.57530322072906,2.28030644540965
"GA","GA_Bibb County,",13021,-83.687184,32.832049,231.747373731728,0.0703443285550276,0.0786054252846498,0.0446134101802126,0.1160061575979,0.108484400707301,0.0271539927904761,2.11743977729966,1.77519916161971,2.50778533035656
"GA","GA_Bleckley Cou",13023,-83.33214,32.401368,22.6808864679067,0.0703443285550276,0.0786054252846498,0.0446134101802126,0.1160061575979,0.0910478735858723,0.0278434596558761,1.89238851515092,1.57162559843592,2.26114837022333
"GA","GA_Brantley Cou",13025,-81.96997,31.216648,16.4894081095989,0.0703443285550276,0.0786054252846498,0.0446134101802126,0.1160061575979,0.086153909470964,0.0293762205094147,1.83264921777224,1.50397132527664,2.21394805883835
"GA","GA_Brooks Count",13027,-83.54009,30.842082,11.9884628881195,0.0703443285550276,0.0786054252846498,0.0446134101802126,0.1160061575979,0.0912344490396506,0.0283430609183501,1.89469519143437,1.56827661263757,2.27087725175195
"GA","GA_Bryan County",13029,-81.375954,31.979537,33.6605338882984,0.0703443285550276,0.0786054252846498,0.0446134101802126,0.1160061575979,0.0894564171387901,0.0294906792923355,1.87280042924377,1.53724291287147,2.26193781998115
"GA","GA_Bulloch Coun",13031,-81.76242,32.417702,44.6159179753471,0.0703443285550276,0.0786054252846498,0.0446134101802126,0.1160061575979,0.0916713663355132,0.0290689345145103,1.90010534245105,1.5651900586694,2.2874361994886
"GA","GA_Burke County",13033,-81.998447,33.101987,10.3490986388249,0.0703443285550276,0.0786054252846498,0.0446134101802126,0.1160061575979,0.0818193810480319,0.0284324306102173,1.78095904991093,1.46920201668349,2.14134180201796
"GA","GA_Butts County",13035,-83.970002,33.296102,50.6674897427257,0.0703443285550276,0.0786054252846498,0.0446134101802126,0.1160061575979,0.0913726772829563,0.0261059803152929,1.8964055302765,1.59382836821818,2.2412185027082
"GA","GA_Calhoun Coun",13037,-84.668445,31.527412,8.42619456176287,0.0703443285550276,0.0786054252846498,0.0446134101802126,0.1160061575979,0.0934584214709175,0.0273962672281676,1.92235707820438,1.6024570417903,2.28907009353137
"GA","GA_Camden Count",13039,-81.635079,30.814165,26.972659100601,0.0703443285550276,0.0786054252846498,0.0446134101802126,0.1160061575979,0.0876591319269904,0.0294356774564211,1.85086651175052,1.51898971052681,2.23582632586257
"GA","GA_Candler Coun",13043,-82.062305,32.399861,16.7613364497317,0.0703443285550276,0.0786054252846498,0.0446134101802126,0.1160061575979,0.0859034133275623,0.0289631887771323,1.82963095773855,1.50565393281257,2.20471948892767
"GA","GA_Carroll Coun",13045,-85.044673,33.622193,91.9484309251222,0.0703443285550276,0.0786054252846498,0.0446134101802126,0.1160061575979,0.0929350673609562,0.0261050760663851,1.91581989445337,1.61082040446257,2.26325556900329
"GA","GA_Catoosa Coun",13047,-85.17282,34.927795,160.403054262801,0.0703443285550276,0.0786054252846498,0.0446134101802126,0.1160061575979,0.0930438217377173,0.0269948402963621,1.91717693385997,1.60231385645567,2.27743346231578
"GA","GA_Charlton Cou",13049,-82.023033,30.780002,6.60358914274104,0.0703443285550276,0.0786054252846498,0.0446134101802126,0.1160061575979,0.0810707304175133,0.0292454091255552,1.77214611391617,1.45340090237241,2.14221561357245
"GA","GA_Chatham Coun",13051,-81.126449,32.036008,172.901142180584,0.0703443285550276,0.0786054252846498,0.0446134101802126,0.1160061575979,0.102869579531949,0.0295456240432981,2.04285339072116,1.68291283069563,2.45880961256296
"GA","GA_Chattahooche",13053,-84.899254,32.344231,16.7650510398791,0.0703443285550276,0.0786054252846498,0.0446134101802126,0.1160061575979,0.0915834880004296,0.0272969533792816,1.89901623363154,1.58324570602902,2.2609941965288
"GA","GA_Chattooga Co",13055,-85.344167,34.495509,30.4840571551966,0.0703443285550276,0.0786054252846498,0.0446134101802126,0.1160061575979,0.0805982206391781,0.0267819299008851,1.76660115875868,1.47356960130309,2.10260968248644
"GA","GA_Cherokee Cou",13057,-84.496595,34.169606,230.197776595705,0.0703443285550276,0.0786054252846498,0.0446134101802126,0.1160061575979,0.0986442979022633,0.0251688691692332,1.98806124297583,1.68462365874612,2.33163654931567
"GA","GA_Clarke Count",13059,-83.380863,33.950406,408.515458462454,0.0703443285550276,0.0786054252846498,0.0446134101802126,0.1160061575979,0.10942051192391,0.0268088776302751,2.13007405958604,1.79032198098517,2.51684457951467
"GA","GA_Clay County,",13061,-85.013368,31.633549,5.04222256563305,0.0703443285550276,0.0786054252846498,0.0446134101802126,0.1160061575979,0.0902376181986774,0.0277365396063568,1.88239612271269,1.56410854817192,2.24819372038067
"GA","GA_Clayton Coun",13063,-84.362238,33.553383,782.040266949259,0.0703443285550276,0.0786054252846498,0.0446134101802126,0.1160061575979,0.118145285924468,0.0250953221583872,2.25060653566027,1.91725359619635,2.62620864171752
"GA","GA_Clinch Count",13065,-82.740932,31.017888,3.10009490067846,0.0703443285550276,0.0786054252846498,0.0446134101802126,0.1160061575979,0.0812439929693104,0.0288854081556092,1.77418272522627,1.458781684339,2.13967976190058
"GA","GA_Cobb County,",13067,-84.557878,33.943254,851.836845544681,0.0257123361181619,0.10472753034146,0.0733209501304808,0.13138659615765,0.115115838125162,0.0229017954599714,2.20818251344481,1.90684154926555,2.54440639331594
"GA","GA_Coffee Count",13069,-82.840667,31.516,27.7229437611798,0.0703443285550276,0.0786054252846498,0.0446134101802126,0.1160061575979,0.0928183667292087,0.0287032269759052,1.91436452068945,1.58140079341871,2.29861365820293
"GA","GA_Colquitt Cou",13071,-83.768671,31.180955,31.6323426291521,0.0703443285550276,0.0786054252846498,0.0446134101802126,0.1160061575979,0.0990617428791348,0.0277557630584141,1.99342394726321,1.66024848197455,2.37547347211264
"GA","GA_Columbia Cou",13073,-82.165654,33.51622,196.580797684521,0.0703443285550276,0.0786054252846498,0.0446134101802126,0.1160061575979,0.102935181280209,0.0281158512489237,2.04371308804474,1.69986138745997,2.43830010911037
"GA","GA_Cook County,",13075,-83.424499,31.149847,28.5884900233576,0.0703443285550276,0.0786054252846498,0.0446134101802126,0.1160061575979,0.0962406455668878,0.0282017442590522,1.95739713312622,1.6240564716032,2.34076655592906
"GA","GA_Coweta Count",13077,-84.736399,33.379117,128.561251155385,0.0703443285550276,0.0786054252846498,0.0446134101802126,0.1160061575979,0.0976935020892341,0.0259218228534464,1.97588804219662,1.66545778600307,2.32877144436385
"GA","GA_Crawford Cou",13079,-83.934002,32.707681,14.6692222504856,0.0703443285550276,0.0786054252846498,0.0446134101802126,0.1160061575979,0.0876989156926309,0.0270286016380184,1.85134988365606,1.54467268223847,2.20278876232879
"GA","GA_Crisp County",13081,-83.777791,31.947962,30.7167995046117,0.0703443285550276,0.0786054252846498,0.0446134101802126,0.1160061575979,0.0973161600500893,0.0273175129636653,1.97107270850167,1.64569201123829,2.34354742703224
"GA","GA_Dade County,",13083,-85.497004,34.882709,35.7404816035219,0.0703443285550276,0.0786054252846498,0.0446134101802126,0.1160061575979,0.0805405431961739,0.0270009078241365,1.76592522400472,1.47075408995788,2.10477099847221
"GA","GA_Dawson Count",13085,-84.104119,34.40138,47.1154372543616,0.0703443285550276,0.0786054252846498,0.0446134101802126,0.1160061575979,0.0849919485371924,0.0259321666444353,1.81868084336193,1.52773042847388,2.15048759265469
"GA","GA_Decatur Coun",13087,-84.57036,30.888345,16.3585268872203,0.0703443285550276,0.0786054252846498,0.0446134101802126,0.1160061575979,0.0969554121679514,0.0281293761241995,1.96647753775939,1.63271979003686,2.35011563443916
"GA","GA_DeKalb Count",13089,-84.248029,33.789813,1082.03291053337,0.0244117371675214,0.124835686526722,0.0901421369843446,0.154505282035358,0.111396737136809,0.0244608595527643,2.15693475693127,1.84209587934255,2.51114257634741
"GA","GA_Dodge County",13091,-83.175591,32.212815,15.810073871847,0.0703443285550276,0.0786054252846498,0.0446134101802126,0.1160061575979,0.0892829791951327,0.0281016250904414,1.87067514963482,1.55007903847698,2.23989635975646
"GA","GA_Dooly County",13093,-83.784195,32.16758,13.0175100866272,0.0703443285550276,0.0786054252846498,0.0446134101802126,0.1160061575979,0.0907715197265821,0.027350819953453,1.88897584704602,1.57394282704675,2.25028289180834
"GA","GA_Dougherty Co",13095,-84.167625,31.573426,101.473023215247,0.0151255092415251,0.132955194953773,0.100171159312003,0.167167422688059,0.0981613801176364,0.0309765649814167,1.98187121650951,1.61469658956964,2.40975588890986
"GA","GA_Douglas Coun",13097,-84.734644,33.724923,282.135651683104,0.0703443285550276,0.0786054252846498,0.0446134101802126,0.1160061575979,0.102979436604121,0.0253162767402138,2.04429320091206,1.73245672665873,2.39726972468192
"GA","GA_Early County",13099,-84.916722,31.331726,7.62018578956841,0.0703443285550276,0.0786054252846498,0.0446134101802126,0.1160061575979,0.0931307722253252,0.027875793745122,1.91826243385686,1.59370152244756,2.29124084627524
"GA","GA_Echols Count",13101,-83.057989,30.708629,3.67541315644308,0.0703443285550276,0.0786054252846498,0.0446134101802126,0.1160061575979,0.0829272709110467,0.0287133011844204,1.79406274498451,1.47762411802368,2.16026672185701
"GA","GA_Effingham Co",13103,-81.299511,32.291745,51.4088224510412,0.0703443285550276,0.0786054252846498,0.0446134101802126,0.1160061575979,0.0922669205822012,0.0293077509658838,1.90749889732607,1.56900131992682,2.29937450784128
"GA","GA_Elbert Count",13105,-82.879523,34.126521,19.7849251784458,0.0703443285550276,0.0786054252846498,0.0446134101802126,0.1160061575979,0.0827038544738046,0.0276696185591507,1.79141430601264,1.48601454002139,2.14299464402933
"GA","GA_Emanuel Coun",13107,-82.307952,32.58586,12.6646336948817,0.0703443285550276,0.0786054252846498,0.0446134101802126,0.1160061575979,0.0844591373132034,0.0287183349748059,1.81230316491675,1.49327163269048,2.18135842751411
"GA","GA_Evans County",13109,-81.907367,32.169649,22.0092530543948,0.0703443285550276,0.0786054252846498,0.0446134101802126,0.1160061575979,0.0875209810871307,0.0291731221663741,1.8491887348812,1.5202874325884,2.23020784804703
"GA","GA_Fannin Count",13111,-84.313402,34.901383,25.8295507860777,0.0703443285550276,0.0786054252846498,0.0446134101802126,0.1160061575979,0.079574921157125,0.0269515837439439,1.75463845268973,1.46145887502275,2.0911995678214
"GA","GA_Fayette Coun",13113,-84.512414,33.427941,221.700019320769,0.0703443285550276,0.0786054252846498,0.0446134101802126,0.1160061575979,0.102874669256187,0.0255493738679364,2.04292008062078,1.72855915803331,2.39916906098568
"GA","GA_Floyd County",13115,-85.183164,34.255796,73.3466975219032,0.0703443285550276,0.0786054252846498,0.0446134101802126,0.1160061575979,0.0877961436178392,0.0264401400748024,1.85253160900173,1.551930041739,2.1959799090563
"GA","GA_Forsyth Coun",13117,-84.144322,34.19492,381.219806056361,0.0703443285550276,0.0786054252846498,0.0446134101802126,0.1160061575979,0.105662786885225,0.0252893314105601,2.07970293156693,1.76396821064809,2.43681803059542
"GA","GA_Franklin Cou",13119,-83.186079,34.377335,33.842978911201,0.0703443285550276,0.0786054252846498,0.0446134101802126,0.1160061575979,0.0850236349895769,0.0274118235702346,1.81906066897998,1.51262189290794,2.17115591313126
"GA","GA_Fulton Count",13121,-84.393645,33.836086,768.417053332125,0.0381597086578599,0.0943700626409784,0.0595277606916752,0.130504626975761,0.111213044022362,0.0276538008418449,2.15442720434631,1.80157063704992,2.55757440561706
"GA","GA_Gilmer Count",13123,-84.483646,34.677249,28.0459181999128,0.0703443285550276,0.0786054252846498,0.0446134101802126,0.1160061575979,0.0800038870020007,0.0264878459247093,1.75964557938496,1.47051416577419,2.09073579667178
"GA","GA_Glascock Cou",13125,-82.609847,33.235927,7.94066645504136,0.0703443285550276,0.0786054252846498,0.0446134101802126,0.1160061575979,0.0806220294445353,0.0281190170401679,1.76688023755026,1.46024166866797,2.12089791760858
"GA","GA_Glynn County",13127,-81.486488,31.202698,56.4793271468977,0.0703443285550276,0.0786054252846498,0.0446134101802126,0.1160061575979,0.0930885469009177,0.0296074608222451,1.91773522917031,1.57459026287333,2.31549306310842
"GA","GA_Gordon Count",13129,-84.908795,34.498326,62.5775888134324,0.0703443285550276,0.0786054252846498,0.0446134101802126,0.1160061575979,0.0856283792982986,0.0263892863294826,1.82632144064034,1.52960954328847,2.16542735317543
"GA","GA_Grady County",13131,-84.214288,30.882764,20.6591383718093,0.0703443285550276,0.0786054252846498,0.0446134101802126,0.1160061575979,0.0975260212723059,0.0280069040990245,1.97374967786835,1.64037752151065,2.35665426399984
"GA","GA_Greene Count",13133,-83.166093,33.549876,17.4139283037279,0.0703443285550276,0.0786054252846498,0.0446134101802126,0.1160061575979,0.0836151027566223,0.0273110822396394,1.80223541542398,1.49907613804579,2.15051579554442
"GA","GA_Gwinnett Cou",13135,-84.057963,33.951956,827.695842360662,0.014350933722992,0.11122870752781,0.076817318214788,0.14453196450735,0.107547475321003,0.0269379432667674,2.10485175276292,1.7667337431184,2.49018239568159
"GA","GA_Habersham Co",13137,-83.541626,34.56516,62.6812287291249,0.0703443285550276,0.0786054252846498,0.0446134101802126,0.1160061575979,0.088353505308311,0.0270870335105982,1.85931706696085,1.55098093489201,2.21270028395795
"GA","GA_Hall County,",13139,-83.844712,34.275205,183.907769630942,0.0703443285550276,0.0786054252846498,0.0446134101802126,0.1160061575979,0.0980978638422431,0.0260270396287514,1.98105816510657,1.66881067620396,2.33615646038385
"GA","GA_Hancock Coun",13141,-83.002047,33.255825,6.81968164671309,0.0703443285550276,0.0786054252846498,0.0446134101802126,0.1160061575979,0.0800470915243282,0.0277179553870336,1.76015049619848,1.45848413432221,2.10776983011872
"GA","GA_Haralson Cou",13143,-85.18547,33.76192,40.6184791654145,0.0703443285550276,0.0786054252846498,0.0446134101802126,0.1160061575979,0.0857622717099025,0.0262799638255972,1.82793200846655,1.53216121716299,2.16576392444156
"GA","GA_Harris Count",13145,-84.895034,32.699933,28.7643734959455,0.0703443285550276,0.0786054252846498,0.0446134101802126,0.1160061575979,0.09186267720776,0.0270276960119942,1.90247798580122,1.58916046233072,2.26113478084549
"GA","GA_Hart County,",13147,-82.964953,34.355413,39.4563806209268,0.0703443285550276,0.0786054252846498,0.0446134101802126,0.1160061575979,0.086521286374059,0.0276707263871864,1.8370827102871,1.52554012773994,2.19536706866725
"GA","GA_Heard County",13149,-85.1134,33.309334,15.2884084805483,0.0703443285550276,0.0786054252846498,0.0446134101802126,0.1160061575979,0.0828659266952931,0.0265066428414612,1.79333525407093,1.49964662438692,2.12942561072282
"GA","GA_Henry County",13151,-84.175416,33.475842,279.097791407298,0.0703443285550276,0.0786054252846498,0.0446134101802126,0.1160061575979,0.105739322229226,0.025406161661041,2.08071971480282,1.76349650713046,2.43971595341719
"GA","GA_Houston Coun",13153,-83.663357,32.571603,160.45278801639,0.0703443285550276,0.0786054252846498,0.0446134101802126,0.1160061575979,0.106349876646101,0.0273804568470996,2.08884460125479,1.74758940567761,2.478704796485
"GA","GA_Irwin County",13155,-83.280834,31.604647,10.0221509919696,0.0703443285550276,0.0786054252846498,0.0446134101802126,0.1160061575979,0.08926539898089,0.0281395931760534,1.87045982802544,1.54949067530637,2.24018290949225
"GA","GA_Jackson Coun",13157,-83.584805,34.132059,82.1426058720831,0.0703443285550276,0.0786054252846498,0.0446134101802126,0.1160061575979,0.0916683172146324,0.026427465938733,1.90006754554315,1.59354861413147,2.24990837105338
"GA","GA_Jasper Count",13159,-83.724341,33.356251,14.6948142045111,0.0703443285550276,0.0786054252846498,0.0446134101802126,0.1160061575979,0.0832577702819933,0.0264164828141005,1.79798609963193,1.50462953802135,2.13350856200493
